[{"meta": {"code": 200, "requestId": "60b7e63649d56e7e7e4848d0"}, "response": {"warning": {"text": "There aren't a lot of results near you. Try something more general, reset your filters, or expand the search area."}, "headerLocation": "Lakeshore", "headerFullLocation": "Lakeshore, San Francisco", "headerLocationGranularity": "neighborhood", "query": "food drink", "totalResults": 0, "suggestedBounds": {"ne": {"lat": 37.71583700675, "lng": -122.4845161745519}, "sw": {"lat": 37.70233699324999, "lng": -122.50154860465851}}, "groups": [{"type": "Recommended Places", "name": "recommended", "items": []}]}}, {"meta": {"code": 200, "requestId": "60b7e637db321b25f7764f0a"}, "response": {"warning": {"text": "There aren't a lot of results near you. Try something more general, reset your filters, or expand the search area."}, "headerLocation": "Lakeshore", "headerFullLocation": "Lakeshore, San Francisco", "headerLocationGranularity": "neighborhood", "query": "food drink", "totalResults": 0, "suggestedBounds": {"ne": {"lat": 37.71631545675, "lng": -122.4688868285849}, "sw": {"lat": 37.702815443249996, "lng": -122.4859193686565}}, "groups": [{"type": "Recommended Places", "name": "recommended", "items": []}]}}, {"meta": {"code": 200, "requestId": "60b7e637add1070f6ffab4d2"}, "response": {"warning": {"text": "There aren't a lot of results near you. Try something more general, reset your filters, or expand the search area."}, "headerLocation": "Merced Heights", "headerFullLocation": "Merced Heights, San Francisco", "headerLocationGranularity": "neighborhood", "query": "food drink", "totalResults": 1, "suggestedBounds": {"ne": {"lat": 37.715250656750015, "lng": -122.46141745232708}, "sw": {"lat": 37.70175064325001, "lng": -122.47844974767293}}, "groups": [{"type": "Recommended Places", "name": "recommended", "items": [{"reasons": {"count": 0, "items": [{"summary": "This spot is popular", "type": "general", "reasonName": "globalInteractionReason"}]}, "venue": {"id": "60805653d5413a3307bd220c", "name": "H Mart", "location": {"address": "3995 Alemany Blvd", "lat": 37.71047, "lng": -122.46752, "labeledLatLngs": [{"label": "display", "lat": 37.71047, "lng": -122.46752}], "distance": 305, "postalCode": "94132", "cc": "US", "neighborhood": "Merced Heights", "city": "San Francisco", "state": "CA", "country": "United States", "formattedAddress": ["3995 Alemany Blvd", "San Francisco, CA 94132", "United States"]}, "categories": [{"id": "52f2ab2ebcbc57f1066b8b46", "name": "Supermarket", "pluralName": "Supermarkets", "shortName": "Supermarket", "icon": {"prefix": "https://ss3.4sqi.net/img/categories_v2/shops/food_grocery_", "suffix": ".png"}, "primary": true}], "photos": {"count": 0, "groups": []}}, "referralId": "e-0-60805653d5413a3307bd220c-0"}]}]}}, {"meta": {"code": 200, "requestId": "60b7e6370f3e894e203040ae"}, "response": {"suggestedFilters": {"header": "Tap to show:", "filters": [{"name": "Open now", "key": "openNow"}]}, "headerLocation": "San Francisco", "headerFullLocation": "San Francisco", "headerLocationGranularity": "city", "query": "food drink", "totalResults": 12, "suggestedBounds": {"ne": {"lat": 37.71501730675, "lng": -122.45173402916001}, "sw": {"lat": 37.70151729324999, "lng": -122.46876627087616}}, "groups": [{"type": "Recommended Places", "name": "recommended", "items": [{"reasons": {"count": 0, "items": [{"summary": "This spot is popular", "type": "general", "reasonName": "globalInteractionReason"}]}, "venue": {"id": "56fc51ee498eea7a3a02a00c", "name": "Dollar Tree", "location": {"address": "6232 Mission St", "lat": 37.70639730409864, "lng": -122.46007333560227, "labeledLatLngs": [{"label": "display", "lat": 37.70639730409864, "lng": -122.46007333560227}, {"label": "entrance", "lat": 37.706642, "lng": -122.460293}], "distance": 208, "postalCode": "94014", "cc": "US", "city": "Daly City", "state": "CA", "country": "United States", "formattedAddress": ["6232 Mission St", "Daly City, CA 94014", "United States"]}, "categories": [{"id": "52dea92d3cf9994f4e043dbb", "name": "Discount Store", "pluralName": "Discount Stores", "shortName": "Discount Store", "icon": {"prefix": "https://ss3.4sqi.net/img/categories_v2/shops/discountstore_", "suffix": ".png"}, "primary": true}], "photos": {"count": 0, "groups": []}}, "referralId": "e-0-56fc51ee498eea7a3a02a00c-0"}, {"reasons": {"count": 0, "items": [{"summary": "This spot is popular", "type": "general", "reasonName": "globalInteractionReason"}]}, "venue": {"id": "4c8578ee74d7b60c3b349cd8", "name": "New Daly City Market", "location": {"lat": 37.705980795147205, "lng": -122.45273152171548, "labeledLatLngs": [{"label": "display", "lat": 37.705980795147205, "lng": -122.45273152171548}, {"label": "entrance", "lat": 37.705971, "lng": -122.45273}], "distance": 709, "postalCode": "94014", "cc": "US", "city": "Daly City", "state": "CA", "country": "United States", "formattedAddress": ["Daly City, CA 94014", "United States"]}, "categories": [{"id": "4bf58dd8d48988d118951735", "name": "Grocery Store", "pluralName": "Grocery Stores", "shortName": "Grocery Store", "icon": {"prefix": "https://ss3.4sqi.net/img/categories_v2/shops/food_grocery_", "suffix": ".png"}, "primary": true}], "delivery": {"id": "2472735", "url": "https://www.grubhub.com/restaurant/new-daly-city-market-398-templeton-ave-daly-city/2472735?affiliate=1131&utm_source=foursquare-affiliate-network&utm_medium=affiliate&utm_campaign=1131&utm_content=2472735", "provider": {"name": "grubhub", "icon": {"prefix": "https://fastly.4sqi.net/img/general/cap/", "sizes": [40, 50], "name": "/delivery_provider_grubhub_20180129.png"}}}, "photos": {"count": 0, "groups": []}}, "referralId": "e-0-4c8578ee74d7b60c3b349cd8-1"}, {"reasons": {"count": 0, "items": [{"summary": "This spot is popular", "type": "general", "reasonName": "globalInteractionReason"}]}, "venue": {"id": "4d2e0d08d9d8a143edfff5d7", "name": "Philppine Grocery", "location": {"address": "Mission", "lat": 37.70687947795218, "lng": -122.45829291861911, "labeledLatLngs": [{"label": "display", "lat": 37.70687947795218, "lng": -122.45829291861911}], "distance": 231, "cc": "US", "city": "Daly City", "state": "CA", "country": "United States", "formattedAddress": ["Mission", "Daly City, CA", "United States"]}, "categories": [{"id": "4bf58dd8d48988d118951735", "name": "Grocery Store", "pluralName": "Grocery Stores", "shortName": "Grocery Store", "icon": {"prefix": "https://ss3.4sqi.net/img/categories_v2/shops/food_grocery_", "suffix": ".png"}, "primary": true}], "photos": {"count": 0, "groups": []}}, "referralId": "e-0-4d2e0d08d9d8a143edfff5d7-2"}, {"reasons": {"count": 0, "items": [{"summary": "This spot is popular", "type": "general", "reasonName": "globalInteractionReason"}]}, "venue": {"id": "4ad9fff5f964a5200d1d21e3", "name": "Crocker Grocery", "location": {"address": "98 Crocker Ave", "crossStreet": "Mission", "lat": 37.70634511398552, "lng": -122.45861357321886, "labeledLatLngs": [{"label": "display", "lat": 37.70634511398552, "lng": -122.45861357321886}, {"label": "entrance", "lat": 37.706161, "lng": -122.458637}], "distance": 257, "postalCode": "94014", "cc": "US", "city": "Daly City", "state": "CA", "country": "United States", "formattedAddress": ["98 Crocker Ave (Mission)", "Daly City, CA 94014", "United States"]}, "categories": [{"id": "4bf58dd8d48988d118951735", "name": "Grocery Store", "pluralName": "Grocery Stores", "shortName": "Grocery Store", "icon": {"prefix": "https://ss3.4sqi.net/img/categories_v2/shops/food_grocery_", "suffix": ".png"}, "primary": true}], "photos": {"count": 0, "groups": []}}, "referralId": "e-0-4ad9fff5f964a5200d1d21e3-3"}, {"reasons": {"count": 0, "items": [{"summary": "This spot is popular", "type": "general", "reasonName": "globalInteractionReason"}]}, "venue": {"id": "586871dea55db03737cc2e4e", "name": "Morazan", "location": {"address": "6157 Mission St", "crossStreet": "at Wilson St", "lat": 37.706876, "lng": -122.45766100000002, "labeledLatLngs": [{"label": "display", "lat": 37.706876, "lng": -122.45766100000002}, {"label": "entrance", "lat": 37.7069, "lng": -122.457873}], "distance": 275, "postalCode": "94014", "cc": "US", "city": "Daly City", "state": "CA", "country": "United States", "formattedAddress": ["6157 Mission St (at Wilson St)", "Daly City, CA 94014", "United States"]}, "categories": [{"id": "4bf58dd8d48988d118951735", "name": "Grocery Store", "pluralName": "Grocery Stores", "shortName": "Grocery Store", "icon": {"prefix": "https://ss3.4sqi.net/img/categories_v2/shops/food_grocery_", "suffix": ".png"}, "primary": true}], "photos": {"count": 0, "groups": []}}, "referralId": "e-0-586871dea55db03737cc2e4e-4"}, {"reasons": {"count": 0, "items": [{"summary": "This spot is popular", "type": "general", "reasonName": "globalInteractionReason"}]}, "venue": {"id": "4ad9fde4f964a520e91c21e3", "name": "La Loma #4 Market", "location": {"address": "6001 Mission St.", "crossStreet": "at Templeton", "lat": 37.70786916867671, "lng": -122.45476565316538, "distance": 485, "postalCode": "94112", "cc": "US", "city": "San Francisco", "state": "CA", "country": "United States", "formattedAddress": ["6001 Mission St. (at Templeton)", "San Francisco, CA 94112", "United States"]}, "categories": [{"id": "4bf58dd8d48988d118951735", "name": "Grocery Store", "pluralName": "Grocery Stores", "shortName": "Grocery Store", "icon": {"prefix": "https://ss3.4sqi.net/img/categories_v2/shops/food_grocery_", "suffix": ".png"}, "primary": true}], "photos": {"count": 0, "groups": []}}, "referralId": "e-0-4ad9fde4f964a520e91c21e3-5"}, {"reasons": {"count": 0, "items": [{"summary": "This spot is popular", "type": "general", "reasonName": "globalInteractionReason"}]}, "venue": {"id": "4ce83721b99754812d33fb44", "name": "Family Market", "location": {"address": "198 Broad St", "crossStreet": "Capitol", "lat": 37.71322473994249, "lng": -122.45880477885848, "labeledLatLngs": [{"label": "display", "lat": 37.71322473994249, "lng": -122.45880477885848}, {"label": "entrance", "lat": 37.713297, "lng": -122.458885}], "distance": 566, "postalCode": "94112", "cc": "US", "city": "San Francisco", "state": "CA", "country": "United States", "formattedAddress": ["198 Broad St (Capitol)", "San Francisco, CA 94112", "United States"]}, "categories": [{"id": "4bf58dd8d48988d118951735", "name": "Grocery Store", "pluralName": "Grocery Stores", "shortName": "Grocery Store", "icon": {"prefix": "https://ss3.4sqi.net/img/categories_v2/shops/food_grocery_", "suffix": ".png"}, "primary": true}], "photos": {"count": 0, "groups": []}}, "referralId": "e-0-4ce83721b99754812d33fb44-6"}, {"reasons": {"count": 0, "items": [{"summary": "This spot is popular", "type": "general", "reasonName": "globalInteractionReason"}]}, "venue": {"id": "4de85bc9ae60293318ef6d88", "name": "Ana's Market", "location": {"address": "105 Broad St", "crossStreet": "Plymouth", "lat": 37.713183060154044, "lng": -122.4563873010458, "labeledLatLngs": [{"label": "display", "lat": 37.713183060154044, "lng": -122.4563873010458}, {"label": "entrance", "lat": 37.713092, "lng": -122.456382}], "distance": 644, "postalCode": "94112", "cc": "US", "city": "San Francisco", "state": "CA", "country": "United States", "formattedAddress": ["105 Broad St (Plymouth)", "San Francisco, CA 94112", "United States"]}, "categories": [{"id": "4bf58dd8d48988d118951735", "name": "Grocery Store", "pluralName": "Grocery Stores", "shortName": "Grocery Store", "icon": {"prefix": "https://ss3.4sqi.net/img/categories_v2/shops/food_grocery_", "suffix": ".png"}, "primary": true}], "photos": {"count": 0, "groups": []}}, "referralId": "e-0-4de85bc9ae60293318ef6d88-7"}, {"reasons": {"count": 0, "items": [{"summary": "This spot is popular", "type": "general", "reasonName": "globalInteractionReason"}]}, "venue": {"id": "60805653d5413a3307bd220c", "name": "H Mart", "location": {"address": "3995 Alemany Blvd", "lat": 37.71047, "lng": -122.46752, "labeledLatLngs": [{"label": "display", "lat": 37.71047, "lng": -122.46752}], "distance": 685, "postalCode": "94132", "cc": "US", "neighborhood": "Merced Heights", "city": "San Francisco", "state": "CA", "country": "United States", "formattedAddress": ["3995 Alemany Blvd", "San Francisco, CA 94132", "United States"]}, "categories": [{"id": "52f2ab2ebcbc57f1066b8b46", "name": "Supermarket", "pluralName": "Supermarkets", "shortName": "Supermarket", "icon": {"prefix": "https://ss3.4sqi.net/img/categories_v2/shops/food_grocery_", "suffix": ".png"}, "primary": true}], "photos": {"count": 0, "groups": []}}, "referralId": "e-0-60805653d5413a3307bd220c-8"}, {"reasons": {"count": 0, "items": [{"summary": "This spot is popular", "type": "general", "reasonName": "globalInteractionReason"}]}, "venue": {"id": "4cd5e115ab19a0936a0a42eb", "name": "Fairview Market", "location": {"address": "295 Orizaba Ave", "crossStreet": "Randolph", "lat": 37.7141227722168, "lng": -122.46295928955078, "labeledLatLngs": [{"label": "display", "lat": 37.7141227722168, "lng": -122.46295928955078}], "distance": 694, "postalCode": "94132", "cc": "US", "city": "San Francisco", "state": "CA", "country": "United States", "formattedAddress": ["295 Orizaba Ave (Randolph)", "San Francisco, CA 94132", "United States"]}, "categories": [{"id": "4bf58dd8d48988d186941735", "name": "Liquor Store", "pluralName": "Liquor Stores", "shortName": "Liquor Store", "icon": {"prefix": "https://ss3.4sqi.net/img/categories_v2/shops/food_liquor_", "suffix": ".png"}, "primary": true}], "photos": {"count": 0, "groups": []}}, "referralId": "e-0-4cd5e115ab19a0936a0a42eb-9"}, {"reasons": {"count": 0, "items": [{"summary": "This spot is popular", "type": "general", "reasonName": "globalInteractionReason"}]}, "venue": {"id": "4c8c5f5e55fba093645a5fab", "name": "RC Package House", "location": {"address": "98 Broad St", "crossStreet": "Plymouth", "lat": 37.713488, "lng": -122.45593600000001, "labeledLatLngs": [{"label": "display", "lat": 37.713488, "lng": -122.45593600000001}, {"label": "entrance", "lat": 37.713308, "lng": -122.455938}], "distance": 694, "postalCode": "94112", "cc": "US", "city": "San Francisco", "state": "CA", "country": "United States", "formattedAddress": ["98 Broad St (Plymouth)", "San Francisco, CA 94112", "United States"]}, "categories": [{"id": "4bf58dd8d48988d186941735", "name": "Liquor Store", "pluralName": "Liquor Stores", "shortName": "Liquor Store", "icon": {"prefix": "https://ss3.4sqi.net/img/categories_v2/shops/food_liquor_", "suffix": ".png"}, "primary": true}], "photos": {"count": 0, "groups": []}}, "referralId": "e-0-4c8c5f5e55fba093645a5fab-10"}, {"reasons": {"count": 0, "items": [{"summary": "This spot is popular", "type": "general", "reasonName": "globalInteractionReason"}]}, "venue": {"id": "58d89803a1492667521e5257", "name": "El Taquero catering", "location": {"address": "6025 Mission St", "lat": 37.70766067504883, "lng": -122.45527648925781, "labeledLatLngs": [{"label": "display", "lat": 37.70766067504883, "lng": -122.45527648925781}], "distance": 443, "postalCode": "94014", "cc": "US", "city": "Daly City", "state": "CA", "country": "United States", "formattedAddress": ["6025 Mission St", "Daly City, CA 94014", "United States"]}, "categories": [{"id": "53e0feef498e5aac066fd8a9", "name": "Street Food Gathering", "pluralName": "Street Food Gatherings", "shortName": "Street Food Gathering", "icon": {"prefix": "https://ss3.4sqi.net/img/categories_v2/food/streetfood_", "suffix": ".png"}, "primary": true}], "photos": {"count": 0, "groups": []}}, "referralId": "e-0-58d89803a1492667521e5257-11"}]}]}}, {"meta": {"code": 200, "requestId": "60b7e638a5bf3b7c7488c81b"}, "response": {"suggestedFilters": {"header": "Tap to show:", "filters": [{"name": "Open now", "key": "openNow"}]}, "headerLocation": "Crocker Amazon", "headerFullLocation": "Crocker Amazon, San Francisco", "headerLocationGranularity": "neighborhood", "query": "food drink", "totalResults": 8, "suggestedBounds": {"ne": {"lat": 37.71509000675, "lng": -122.44178535188912}, "sw": {"lat": 37.701589993249996, "lng": -122.45881761031349}}, "groups": [{"type": "Recommended Places", "name": "recommended", "items": [{"reasons": {"count": 0, "items": [{"summary": "This spot is popular", "type": "general", "reasonName": "globalInteractionReason"}]}, "venue": {"id": "4c8578ee74d7b60c3b349cd8", "name": "New Daly City Market", "location": {"lat": 37.705980795147205, "lng": -122.45273152171548, "labeledLatLngs": [{"label": "display", "lat": 37.705980795147205, "lng": -122.45273152171548}, {"label": "entrance", "lat": 37.705971, "lng": -122.45273}], "distance": 338, "postalCode": "94014", "cc": "US", "city": "Daly City", "state": "CA", "country": "United States", "formattedAddress": ["Daly City, CA 94014", "United States"]}, "categories": [{"id": "4bf58dd8d48988d118951735", "name": "Grocery Store", "pluralName": "Grocery Stores", "shortName": "Grocery Store", "icon": {"prefix": "https://ss3.4sqi.net/img/categories_v2/shops/food_grocery_", "suffix": ".png"}, "primary": true}], "delivery": {"id": "2472735", "url": "https://www.grubhub.com/restaurant/new-daly-city-market-398-templeton-ave-daly-city/2472735?affiliate=1131&utm_source=foursquare-affiliate-network&utm_medium=affiliate&utm_campaign=1131&utm_content=2472735", "provider": {"name": "grubhub", "icon": {"prefix": "https://fastly.4sqi.net/img/general/cap/", "sizes": [40, 50], "name": "/delivery_provider_grubhub_20180129.png"}}}, "photos": {"count": 0, "groups": []}}, "referralId": "e-0-4c8578ee74d7b60c3b349cd8-0"}, {"reasons": {"count": 0, "items": [{"summary": "This spot is popular", "type": "general", "reasonName": "globalInteractionReason"}]}, "venue": {"id": "4ad9fde4f964a520e91c21e3", "name": "La Loma #4 Market", "location": {"address": "6001 Mission St.", "crossStreet": "at Templeton", "lat": 37.70786916867671, "lng": -122.45476565316538, "distance": 396, "postalCode": "94112", "cc": "US", "city": "San Francisco", "state": "CA", "country": "United States", "formattedAddress": ["6001 Mission St. (at Templeton)", "San Francisco, CA 94112", "United States"]}, "categories": [{"id": "4bf58dd8d48988d118951735", "name": "Grocery Store", "pluralName": "Grocery Stores", "shortName": "Grocery Store", "icon": {"prefix": "https://ss3.4sqi.net/img/categories_v2/shops/food_grocery_", "suffix": ".png"}, "primary": true}], "photos": {"count": 0, "groups": []}}, "referralId": "e-0-4ad9fde4f964a520e91c21e3-1"}, {"reasons": {"count": 0, "items": [{"summary": "This spot is popular", "type": "general", "reasonName": "globalInteractionReason"}]}, "venue": {"id": "4c7eaad3fb74236a1fdaf7b9", "name": "Win Wah", "location": {"address": "497 Bellevue Ave", "crossStreet": "Acton Street", "lat": 37.70418231302714, "lng": -122.45059138446831, "labeledLatLngs": [{"label": "display", "lat": 37.70418231302714, "lng": -122.45059138446831}, {"label": "entrance", "lat": 37.704961, "lng": -122.450921}], "distance": 463, "postalCode": "94014", "cc": "US", "city": "Daly City", "state": "CA", "country": "United States", "formattedAddress": ["497 Bellevue Ave (Acton Street)", "Daly City, CA 94014", "United States"]}, "categories": [{"id": "4bf58dd8d48988d118951735", "name": "Grocery Store", "pluralName": "Grocery Stores", "shortName": "Grocery Store", "icon": {"prefix": "https://ss3.4sqi.net/img/categories_v2/shops/food_grocery_", "suffix": ".png"}, "primary": true}], "photos": {"count": 0, "groups": []}}, "referralId": "e-0-4c7eaad3fb74236a1fdaf7b9-2"}, {"reasons": {"count": 0, "items": [{"summary": "This spot is popular", "type": "general", "reasonName": "globalInteractionReason"}]}, "venue": {"id": "586871dea55db03737cc2e4e", "name": "Morazan", "location": {"address": "6157 Mission St", "crossStreet": "at Wilson St", "lat": 37.706876, "lng": -122.45766100000002, "labeledLatLngs": [{"label": "display", "lat": 37.706876, "lng": -122.45766100000002}, {"label": "entrance", "lat": 37.7069, "lng": -122.457873}], "distance": 668, "postalCode": "94014", "cc": "US", "city": "Daly City", "state": "CA", "country": "United States", "formattedAddress": ["6157 Mission St (at Wilson St)", "Daly City, CA 94014", "United States"]}, "categories": [{"id": "4bf58dd8d48988d118951735", "name": "Grocery Store", "pluralName": "Grocery Stores", "shortName": "Grocery Store", "icon": {"prefix": "https://ss3.4sqi.net/img/categories_v2/shops/food_grocery_", "suffix": ".png"}, "primary": true}], "photos": {"count": 0, "groups": []}}, "referralId": "e-0-586871dea55db03737cc2e4e-3"}, {"reasons": {"count": 0, "items": [{"summary": "This spot is popular", "type": "general", "reasonName": "globalInteractionReason"}]}, "venue": {"id": "4af0e0f1f964a520dfdf21e3", "name": "Pacific Supermarket", "location": {"address": "2900 Alemany Blvd", "crossStreet": "at Farragut Ave.", "lat": 37.711912647927925, "lng": -122.45271700568682, "labeledLatLngs": [{"label": "display", "lat": 37.711912647927925, "lng": -122.45271700568682}, {"label": "entrance", "lat": 37.711941, "lng": -122.45273}], "distance": 451, "postalCode": "94112", "cc": "US", "city": "San Francisco", "state": "CA", "country": "United States", "formattedAddress": ["2900 Alemany Blvd (at Farragut Ave.)", "San Francisco, CA 94112", "United States"]}, "categories": [{"id": "52f2ab2ebcbc57f1066b8b46", "name": "Supermarket", "pluralName": "Supermarkets", "shortName": "Supermarket", "icon": {"prefix": "https://ss3.4sqi.net/img/categories_v2/shops/food_grocery_", "suffix": ".png"}, "primary": true}], "photos": {"count": 0, "groups": []}}, "referralId": "e-0-4af0e0f1f964a520dfdf21e3-4"}, {"reasons": {"count": 0, "items": [{"summary": "This spot is popular", "type": "general", "reasonName": "globalInteractionReason"}]}, "venue": {"id": "4d2e070379dd6ea81bc985d3", "name": "Woody's Liquor", "location": {"address": "Mission St", "lat": 37.70976259500167, "lng": -122.44986448858356, "labeledLatLngs": [{"label": "display", "lat": 37.70976259500167, "lng": -122.44986448858356}], "distance": 162, "postalCode": "94112", "cc": "US", "city": "San Francisco", "state": "CA", "country": "United States", "formattedAddress": ["Mission St", "San Francisco, CA 94112", "United States"]}, "categories": [{"id": "4bf58dd8d48988d186941735", "name": "Liquor Store", "pluralName": "Liquor Stores", "shortName": "Liquor Store", "icon": {"prefix": "https://ss3.4sqi.net/img/categories_v2/shops/food_liquor_", "suffix": ".png"}, "primary": true}], "photos": {"count": 0, "groups": []}}, "referralId": "e-0-4d2e070379dd6ea81bc985d3-5"}, {"reasons": {"count": 0, "items": [{"summary": "This spot is popular", "type": "general", "reasonName": "globalInteractionReason"}]}, "venue": {"id": "4d2e0d08d9d8a143edfff5d7", "name": "Philppine Grocery", "location": {"address": "Mission", "lat": 37.70687947795218, "lng": -122.45829291861911, "labeledLatLngs": [{"label": "display", "lat": 37.70687947795218, "lng": -122.45829291861911}], "distance": 722, "cc": "US", "city": "Daly City", "state": "CA", "country": "United States", "formattedAddress": ["Mission", "Daly City, CA", "United States"]}, "categories": [{"id": "4bf58dd8d48988d118951735", "name": "Grocery Store", "pluralName": "Grocery Stores", "shortName": "Grocery Store", "icon": {"prefix": "https://ss3.4sqi.net/img/categories_v2/shops/food_grocery_", "suffix": ".png"}, "primary": true}], "photos": {"count": 0, "groups": []}}, "referralId": "e-0-4d2e0d08d9d8a143edfff5d7-6"}, {"reasons": {"count": 0, "items": [{"summary": "This spot is popular", "type": "general", "reasonName": "globalInteractionReason"}]}, "venue": {"id": "58d89803a1492667521e5257", "name": "El Taquero catering", "location": {"address": "6025 Mission St", "lat": 37.70766067504883, "lng": -122.45527648925781, "labeledLatLngs": [{"label": "display", "lat": 37.70766067504883, "lng": -122.45527648925781}], "distance": 444, "postalCode": "94014", "cc": "US", "city": "Daly City", "state": "CA", "country": "United States", "formattedAddress": ["6025 Mission St", "Daly City, CA 94014", "United States"]}, "categories": [{"id": "53e0feef498e5aac066fd8a9", "name": "Street Food Gathering", "pluralName": "Street Food Gatherings", "shortName": "Street Food Gathering", "icon": {"prefix": "https://ss3.4sqi.net/img/categories_v2/food/streetfood_", "suffix": ".png"}, "primary": true}], "photos": {"count": 0, "groups": []}}, "referralId": "e-0-58d89803a1492667521e5257-7"}]}]}}, {"meta": {"code": 200, "requestId": "60b7e6380319445be2234c51"}, "response": {"headerLocation": "Sunnydale", "headerFullLocation": "Sunnydale, San Francisco", "headerLocationGranularity": "neighborhood", "query": "food drink", "totalResults": 4, "suggestedBounds": {"ne": {"lat": 37.71513890675, "lng": -122.4113382651686}, "sw": {"lat": 37.70163889324999, "lng": -122.42837053483142}}, "groups": [{"type": "Recommended Places", "name": "recommended", "items": [{"reasons": {"count": 0, "items": [{"summary": "This spot is popular", "type": "general", "reasonName": "globalInteractionReason"}]}, "venue": {"id": "4e51996d52b1e893ad79a906", "name": "M & M Short Stop Market and Liquor", "location": {"address": "2145 Geneva Ave", "lat": 37.708709716796875, "lng": -122.4202651977539, "labeledLatLngs": [{"label": "display", "lat": 37.708709716796875, "lng": -122.4202651977539}], "distance": 50, "postalCode": "94134", "cc": "US", "city": "San Francisco", "state": "CA", "country": "United States", "formattedAddress": ["2145 Geneva Ave", "San Francisco, CA 94134", "United States"]}, "categories": [{"id": "4bf58dd8d48988d186941735", "name": "Liquor Store", "pluralName": "Liquor Stores", "shortName": "Liquor Store", "icon": {"prefix": "https://ss3.4sqi.net/img/categories_v2/shops/food_liquor_", "suffix": ".png"}, "primary": true}], "delivery": {"id": "468358", "url": "https://www.grubhub.com/restaurant/m--m-shortstop-2145-geneva-ave-san-francisco/468358?affiliate=1131&utm_source=foursquare-affiliate-network&utm_medium=affiliate&utm_campaign=1131&utm_content=468358", "provider": {"name": "grubhub", "icon": {"prefix": "https://fastly.4sqi.net/img/general/cap/", "sizes": [40, 50], "name": "/delivery_provider_grubhub_20180129.png"}}}, "photos": {"count": 0, "groups": []}}, "referralId": "e-0-4e51996d52b1e893ad79a906-0"}, {"reasons": {"count": 0, "items": [{"summary": "This spot is popular", "type": "general", "reasonName": "globalInteractionReason"}]}, "venue": {"id": "4bd236c6046076b03f8c7371", "name": "Little Village", "location": {"crossStreet": "Hahn n sunnydale", "lat": 37.71208572387695, "lng": -122.41572570800781, "labeledLatLngs": [{"label": "entrance", "lat": 37.711952, "lng": -122.415806}, {"label": "display", "lat": 37.71208572387695, "lng": -122.41572570800781}], "distance": 549, "cc": "US", "city": "San Francisco", "state": "CA", "country": "United States", "formattedAddress": ["San Francisco, CA", "United States"]}, "categories": [{"id": "4bf58dd8d48988d186941735", "name": "Liquor Store", "pluralName": "Liquor Stores", "shortName": "Liquor Store", "icon": {"prefix": "https://ss3.4sqi.net/img/categories_v2/shops/food_liquor_", "suffix": ".png"}, "primary": true}], "photos": {"count": 0, "groups": []}}, "referralId": "e-0-4bd236c6046076b03f8c7371-1"}, {"reasons": {"count": 0, "items": [{"summary": "This spot is popular", "type": "general", "reasonName": "globalInteractionReason"}]}, "venue": {"id": "4c0027ab37850f47dcd4973f", "name": "Sun Valley", "location": {"lat": 37.70685, "lng": -122.41292, "labeledLatLngs": [{"label": "display", "lat": 37.70685, "lng": -122.41292}, {"label": "entrance", "lat": 37.706702, "lng": -122.412967}], "distance": 634, "postalCode": "94014", "cc": "US", "city": "Daly City", "state": "CA", "country": "United States", "formattedAddress": ["Daly City, CA 94014", "United States"]}, "categories": [{"id": "4bf58dd8d48988d186941735", "name": "Liquor Store", "pluralName": "Liquor Stores", "shortName": "Liquor Store", "icon": {"prefix": "https://ss3.4sqi.net/img/categories_v2/shops/food_liquor_", "suffix": ".png"}, "primary": true}], "photos": {"count": 0, "groups": []}}, "referralId": "e-0-4c0027ab37850f47dcd4973f-2"}, {"reasons": {"count": 0, "items": [{"summary": "This spot is popular", "type": "general", "reasonName": "globalInteractionReason"}]}, "venue": {"id": "4ee54aedd3e34ebcf0acd488", "name": "Mister Barker's Bangers", "location": {"address": "2600 Geneva Ave", "lat": 37.70698165893555, "lng": -122.4196548461914, "labeledLatLngs": [{"label": "display", "lat": 37.70698165893555, "lng": -122.4196548461914}], "distance": 157, "postalCode": "94014", "cc": "US", "city": "Daly City", "state": "CA", "country": "United States", "formattedAddress": ["2600 Geneva Ave", "Daly City, CA 94014", "United States"]}, "categories": [{"id": "4bf58dd8d48988d16f941735", "name": "Hot Dog Joint", "pluralName": "Hot Dog Joints", "shortName": "Hot Dogs", "icon": {"prefix": "https://ss3.4sqi.net/img/categories_v2/food/hotdog_", "suffix": ".png"}, "primary": true}], "photos": {"count": 0, "groups": []}}, "referralId": "e-0-4ee54aedd3e34ebcf0acd488-3"}]}]}}, {"meta": {"code": 200, "requestId": "60b7e63970a87928ebb1145b"}, "response": {"headerLocation": "Bayshore", "headerFullLocation": "Bayshore, Daly City", "headerLocationGranularity": "neighborhood", "query": "food drink", "totalResults": 7, "suggestedBounds": {"ne": {"lat": 37.71484625675, "lng": -122.40121563280503}, "sw": {"lat": 37.70134624324999, "lng": -122.41824783520995}}, "groups": [{"type": "Recommended Places", "name": "recommended", "items": [{"reasons": {"count": 0, "items": [{"summary": "This spot is popular", "type": "general", "reasonName": "globalInteractionReason"}]}, "venue": {"id": "536e7c4a498ea76ff21120b9", "name": "Grocery Outlet", "location": {"address": "2630 Bayshore Boulevard", "lat": 37.708502, "lng": -122.4058768, "labeledLatLngs": [{"label": "display", "lat": 37.708502, "lng": -122.4058768}, {"label": "entrance", "lat": 37.708455, "lng": -122.405838}], "distance": 342, "postalCode": "94134", "cc": "US", "city": "San Francisco", "state": "CA", "country": "United States", "formattedAddress": ["2630 Bayshore Boulevard", "San Francisco, CA 94134", "United States"]}, "categories": [{"id": "4bf58dd8d48988d118951735", "name": "Grocery Store", "pluralName": "Grocery Stores", "shortName": "Grocery Store", "icon": {"prefix": "https://ss3.4sqi.net/img/categories_v2/shops/food_grocery_", "suffix": ".png"}, "primary": true}], "photos": {"count": 0, "groups": []}}, "referralId": "e-0-536e7c4a498ea76ff21120b9-0"}, {"reasons": {"count": 0, "items": [{"summary": "This spot is popular", "type": "general", "reasonName": "globalInteractionReason"}]}, "venue": {"id": "4ffcee92e4b023bb6297dc87", "name": "Leland Market", "location": {"address": "85 Leland Ave.", "lat": 37.711552000000005, "lng": -122.405273, "labeledLatLngs": [{"label": "display", "lat": 37.711552000000005, "lng": -122.405273}], "distance": 549, "postalCode": "94134", "cc": "US", "city": "San Francisco", "state": "CA", "country": "United States", "formattedAddress": ["85 Leland Ave.", "San Francisco, CA 94134", "United States"]}, "categories": [{"id": "4bf58dd8d48988d118951735", "name": "Grocery Store", "pluralName": "Grocery Stores", "shortName": "Grocery Store", "icon": {"prefix": "https://ss3.4sqi.net/img/categories_v2/shops/food_grocery_", "suffix": ".png"}, "primary": true}], "photos": {"count": 0, "groups": []}}, "referralId": "e-0-4ffcee92e4b023bb6297dc87-1"}, {"reasons": {"count": 0, "items": [{"summary": "This spot is popular", "type": "general", "reasonName": "globalInteractionReason"}]}, "venue": {"id": "4baac3e6f964a5204b853ae3", "name": "La Loma #2", "location": {"address": "65 Leland Ave", "lat": 37.711570739746094, "lng": -122.40525817871094, "labeledLatLngs": [{"label": "entrance", "lat": 37.711668, "lng": -122.405178}, {"label": "display", "lat": 37.711570739746094, "lng": -122.40525817871094}], "distance": 552, "postalCode": "94134", "cc": "US", "city": "San Francisco", "state": "CA", "country": "United States", "formattedAddress": ["65 Leland Ave", "San Francisco, CA 94134", "United States"]}, "categories": [{"id": "4bf58dd8d48988d118951735", "name": "Grocery Store", "pluralName": "Grocery Stores", "shortName": "Grocery Store", "icon": {"prefix": "https://ss3.4sqi.net/img/categories_v2/shops/food_grocery_", "suffix": ".png"}, "primary": true}], "photos": {"count": 0, "groups": []}}, "referralId": "e-0-4baac3e6f964a5204b853ae3-2"}, {"reasons": {"count": 0, "items": [{"summary": "This spot is popular", "type": "general", "reasonName": "globalInteractionReason"}]}, "venue": {"id": "545d597b498e07132d3dfb4b", "name": "Maria #2 Produce Market", "location": {"address": "58 Leland Ave", "lat": 37.711556021029395, "lng": -122.40481833437012, "labeledLatLngs": [{"label": "display", "lat": 37.711556021029395, "lng": -122.40481833437012}, {"label": "entrance", "lat": 37.711729, "lng": -122.404866}], "distance": 579, "postalCode": "94134", "cc": "US", "city": "San Francisco", "state": "CA", "country": "United States", "formattedAddress": ["58 Leland Ave", "San Francisco, CA 94134", "United States"]}, "categories": [{"id": "4bf58dd8d48988d118951735", "name": "Grocery Store", "pluralName": "Grocery Stores", "shortName": "Grocery Store", "icon": {"prefix": "https://ss3.4sqi.net/img/categories_v2/shops/food_grocery_", "suffix": ".png"}, "primary": true}], "photos": {"count": 0, "groups": []}}, "referralId": "e-0-545d597b498e07132d3dfb4b-3"}, {"reasons": {"count": 0, "items": [{"summary": "This spot is popular", "type": "general", "reasonName": "globalInteractionReason"}]}, "venue": {"id": "4c0027ab37850f47dcd4973f", "name": "Sun Valley", "location": {"lat": 37.70685, "lng": -122.41292, "labeledLatLngs": [{"label": "display", "lat": 37.70685, "lng": -122.41292}, {"label": "entrance", "lat": 37.706702, "lng": -122.412967}], "distance": 313, "postalCode": "94014", "cc": "US", "city": "Daly City", "state": "CA", "country": "United States", "formattedAddress": ["Daly City, CA 94014", "United States"]}, "categories": [{"id": "4bf58dd8d48988d186941735", "name": "Liquor Store", "pluralName": "Liquor Stores", "shortName": "Liquor Store", "icon": {"prefix": "https://ss3.4sqi.net/img/categories_v2/shops/food_liquor_", "suffix": ".png"}, "primary": true}], "photos": {"count": 0, "groups": []}}, "referralId": "e-0-4c0027ab37850f47dcd4973f-4"}, {"reasons": {"count": 0, "items": [{"summary": "This spot is popular", "type": "general", "reasonName": "globalInteractionReason"}]}, "venue": {"id": "4bd236c6046076b03f8c7371", "name": "Little Village", "location": {"crossStreet": "Hahn n sunnydale", "lat": 37.71208572387695, "lng": -122.41572570800781, "labeledLatLngs": [{"label": "entrance", "lat": 37.711952, "lng": -122.415806}, {"label": "display", "lat": 37.71208572387695, "lng": -122.41572570800781}], "distance": 689, "cc": "US", "city": "San Francisco", "state": "CA", "country": "United States", "formattedAddress": ["San Francisco, CA", "United States"]}, "categories": [{"id": "4bf58dd8d48988d186941735", "name": "Liquor Store", "pluralName": "Liquor Stores", "shortName": "Liquor Store", "icon": {"prefix": "https://ss3.4sqi.net/img/categories_v2/shops/food_liquor_", "suffix": ".png"}, "primary": true}], "photos": {"count": 0, "groups": []}}, "referralId": "e-0-4bd236c6046076b03f8c7371-5"}, {"reasons": {"count": 0, "items": [{"summary": "This spot is popular", "type": "general", "reasonName": "globalInteractionReason"}]}, "venue": {"id": "4beee5f1d1b7d13a0921cdec", "name": "Adventures in Wine", "location": {"address": "440 Talbert St", "crossStreet": "MacDonald Avenue", "lat": 37.707427, "lng": -122.40908400000001, "labeledLatLngs": [{"label": "display", "lat": 37.707427, "lng": -122.40908400000001}, {"label": "entrance", "lat": 37.707802, "lng": -122.408645}], "distance": 93, "postalCode": "94014", "cc": "US", "city": "Daly City", "state": "CA", "country": "United States", "formattedAddress": ["440 Talbert St (MacDonald Avenue)", "Daly City, CA 94014", "United States"]}, "categories": [{"id": "4bf58dd8d48988d119951735", "name": "Wine Shop", "pluralName": "Wine Shops", "shortName": "Wine Shop", "icon": {"prefix": "https://ss3.4sqi.net/img/categories_v2/shops/food_wineshop_", "suffix": ".png"}, "primary": true}], "photos": {"count": 0, "groups": []}}, "referralId": "e-0-4beee5f1d1b7d13a0921cdec-6"}]}]}}, {"meta": {"code": 200, "requestId": "60b7e63940f20154ebec3aae"}, "response": {"headerLocation": "Brisbane", "headerFullLocation": "Brisbane", "headerLocationGranularity": "city", "query": "food drink", "totalResults": 4, "suggestedBounds": {"ne": {"lat": 37.714759306750004, "lng": -122.39109690878901}, "sw": {"lat": 37.70125929325, "lng": -122.40812909121097}}, "groups": [{"type": "Recommended Places", "name": "recommended", "items": [{"reasons": {"count": 0, "items": [{"summary": "This spot is popular", "type": "general", "reasonName": "globalInteractionReason"}]}, "venue": {"id": "536e7c4a498ea76ff21120b9", "name": "Grocery Outlet", "location": {"address": "2630 Bayshore Boulevard", "lat": 37.708502, "lng": -122.4058768, "labeledLatLngs": [{"label": "display", "lat": 37.708502, "lng": -122.4058768}, {"label": "entrance", "lat": 37.708455, "lng": -122.405838}], "distance": 554, "postalCode": "94134", "cc": "US", "city": "San Francisco", "state": "CA", "country": "United States", "formattedAddress": ["2630 Bayshore Boulevard", "San Francisco, CA 94134", "United States"]}, "categories": [{"id": "4bf58dd8d48988d118951735", "name": "Grocery Store", "pluralName": "Grocery Stores", "shortName": "Grocery Store", "icon": {"prefix": "https://ss3.4sqi.net/img/categories_v2/shops/food_grocery_", "suffix": ".png"}, "primary": true}], "photos": {"count": 0, "groups": []}}, "referralId": "e-0-536e7c4a498ea76ff21120b9-0"}, {"reasons": {"count": 0, "items": [{"summary": "This spot is popular", "type": "general", "reasonName": "globalInteractionReason"}]}, "venue": {"id": "545d597b498e07132d3dfb4b", "name": "Maria #2 Produce Market", "location": {"address": "58 Leland Ave", "lat": 37.711556021029395, "lng": -122.40481833437012, "labeledLatLngs": [{"label": "display", "lat": 37.711556021029395, "lng": -122.40481833437012}, {"label": "entrance", "lat": 37.711729, "lng": -122.404866}], "distance": 605, "postalCode": "94134", "cc": "US", "city": "San Francisco", "state": "CA", "country": "United States", "formattedAddress": ["58 Leland Ave", "San Francisco, CA 94134", "United States"]}, "categories": [{"id": "4bf58dd8d48988d118951735", "name": "Grocery Store", "pluralName": "Grocery Stores", "shortName": "Grocery Store", "icon": {"prefix": "https://ss3.4sqi.net/img/categories_v2/shops/food_grocery_", "suffix": ".png"}, "primary": true}], "photos": {"count": 0, "groups": []}}, "referralId": "e-0-545d597b498e07132d3dfb4b-1"}, {"reasons": {"count": 0, "items": [{"summary": "This spot is popular", "type": "general", "reasonName": "globalInteractionReason"}]}, "venue": {"id": "4baac3e6f964a5204b853ae3", "name": "La Loma #2", "location": {"address": "65 Leland Ave", "lat": 37.711570739746094, "lng": -122.40525817871094, "labeledLatLngs": [{"label": "entrance", "lat": 37.711668, "lng": -122.405178}, {"label": "display", "lat": 37.711570739746094, "lng": -122.40525817871094}], "distance": 635, "postalCode": "94134", "cc": "US", "city": "San Francisco", "state": "CA", "country": "United States", "formattedAddress": ["65 Leland Ave", "San Francisco, CA 94134", "United States"]}, "categories": [{"id": "4bf58dd8d48988d118951735", "name": "Grocery Store", "pluralName": "Grocery Stores", "shortName": "Grocery Store", "icon": {"prefix": "https://ss3.4sqi.net/img/categories_v2/shops/food_grocery_", "suffix": ".png"}, "primary": true}], "photos": {"count": 0, "groups": []}}, "referralId": "e-0-4baac3e6f964a5204b853ae3-2"}, {"reasons": {"count": 0, "items": [{"summary": "This spot is popular", "type": "general", "reasonName": "globalInteractionReason"}]}, "venue": {"id": "4ffcee92e4b023bb6297dc87", "name": "Leland Market", "location": {"address": "85 Leland Ave.", "lat": 37.711552000000005, "lng": -122.405273, "labeledLatLngs": [{"label": "display", "lat": 37.711552000000005, "lng": -122.405273}], "distance": 635, "postalCode": "94134", "cc": "US", "city": "San Francisco", "state": "CA", "country": "United States", "formattedAddress": ["85 Leland Ave.", "San Francisco, CA 94134", "United States"]}, "categories": [{"id": "4bf58dd8d48988d118951735", "name": "Grocery Store", "pluralName": "Grocery Stores", "shortName": "Grocery Store", "icon": {"prefix": "https://ss3.4sqi.net/img/categories_v2/shops/food_grocery_", "suffix": ".png"}, "primary": true}], "photos": {"count": 0, "groups": []}}, "referralId": "e-0-4ffcee92e4b023bb6297dc87-3"}]}]}}, {"meta": {"code": 200, "requestId": "60b7e63a01e5b15433cb7b83"}, "response": {"warning": {"text": "There aren't a lot of results near you. Try something more general, reset your filters, or expand the search area."}, "headerLocation": "San Francisco", "headerFullLocation": "San Francisco", "headerLocationGranularity": "city", "query": "food drink", "totalResults": 1, "suggestedBounds": {"ne": {"lat": 37.71715700194511, "lng": -122.3816183768141}, "sw": {"lat": 37.703656988445104, "lng": -122.39865111030936}}, "groups": [{"type": "Recommended Places", "name": "recommended", "items": [{"reasons": {"count": 0, "items": [{"summary": "This spot is popular", "type": "general", "reasonName": "globalInteractionReason"}]}, "venue": {"id": "4f11b8c5e4b000502c53ee57", "name": "Centerplate", "location": {"address": "490 Jamestown Ave", "lat": 37.71119689941406, "lng": -122.38599395751953, "labeledLatLngs": [{"label": "display", "lat": 37.71119689941406, "lng": -122.38599395751953}], "distance": 375, "postalCode": "94124", "cc": "US", "city": "San Francisco", "state": "CA", "country": "United States", "formattedAddress": ["490 Jamestown Ave", "San Francisco, CA 94124", "United States"]}, "categories": [{"id": "4bf58dd8d48988d1f9941735", "name": "Food & Drink Shop", "pluralName": "Food & Drink Shops", "shortName": "Food & Drink", "icon": {"prefix": "https://ss3.4sqi.net/img/categories_v2/shops/foodanddrink_", "suffix": ".png"}, "primary": true}], "photos": {"count": 0, "groups": []}}, "referralId": "e-0-4f11b8c5e4b000502c53ee57-0"}]}]}}, {"meta": {"code": 200, "requestId": "60b7e63a87bfd807c8db2022"}, "response": {"warning": {"text": "There aren't a lot of results near you. Try something more general, reset your filters, or expand the search area."}, "headerLocation": "Lakeshore", "headerFullLocation": "Lakeshore, San Francisco", "headerLocationGranularity": "neighborhood", "query": "food drink", "totalResults": 0, "suggestedBounds": {"ne": {"lat": 37.72473838288583, "lng": -122.49151710755609}, "sw": {"lat": 37.711238369385825, "lng": -122.50855158394597}}, "groups": [{"type": "Recommended Places", "name": "recommended", "items": []}]}}, {"meta": {"code": 200, "requestId": "60b7e63a44d5ef55c693c9de"}, "response": {"warning": {"text": "There aren't a lot of results near you. Try something more general, reset your filters, or expand the search area."}, "headerLocation": "Lakeshore", "headerFullLocation": "Lakeshore, San Francisco", "headerLocationGranularity": "neighborhood", "query": "food drink", "totalResults": 2, "suggestedBounds": {"ne": {"lat": 37.72840120675001, "lng": -122.48056835258994}, "sw": {"lat": 37.71490119325, "lng": -122.49760367126636}}, "groups": [{"type": "Recommended Places", "name": "recommended", "items": [{"reasons": {"count": 0, "items": [{"summary": "This spot is popular", "type": "general", "reasonName": "globalInteractionReason"}]}, "venue": {"id": "4f633d63e4b0bf1010b180b9", "name": "Everyday Liquors", "location": {"lat": 37.724365234375, "lng": -122.48224639892578, "labeledLatLngs": [{"label": "display", "lat": 37.724365234375, "lng": -122.48224639892578}], "distance": 673, "cc": "US", "city": "San Francisco", "state": "CA", "country": "United States", "formattedAddress": ["San Francisco, CA", "United States"]}, "categories": [{"id": "4bf58dd8d48988d186941735", "name": "Liquor Store", "pluralName": "Liquor Stores", "shortName": "Liquor Store", "icon": {"prefix": "https://ss3.4sqi.net/img/categories_v2/shops/food_liquor_", "suffix": ".png"}, "primary": true}], "photos": {"count": 0, "groups": []}}, "referralId": "e-0-4f633d63e4b0bf1010b180b9-0"}, {"reasons": {"count": 0, "items": [{"summary": "This spot is popular", "type": "general", "reasonName": "globalInteractionReason"}]}, "venue": {"id": "58087eed38fa247a62bb8540", "name": "A&R Seafood Company", "location": {"address": "301 Arballo Dr", "lat": 37.7212, "lng": -122.483, "labeledLatLngs": [{"label": "display", "lat": 37.7212, "lng": -122.483}], "distance": 538, "postalCode": "94132", "cc": "US", "city": "San Francisco", "state": "CA", "country": "United States", "formattedAddress": ["301 Arballo Dr", "San Francisco, CA 94132", "United States"]}, "categories": [{"id": "4bf58dd8d48988d10e951735", "name": "Fish Market", "pluralName": "Fish Markets", "shortName": "Fish Market", "icon": {"prefix": "https://ss3.4sqi.net/img/categories_v2/shops/food_fishmarket_", "suffix": ".png"}, "primary": true}], "photos": {"count": 0, "groups": []}}, "referralId": "e-0-58087eed38fa247a62bb8540-1"}]}]}}, {"meta": {"code": 200, "requestId": "60b7e63b2a247d0fee391898"}, "response": {"warning": {"text": "There aren't a lot of results near you. Try something more general, reset your filters, or expand the search area."}, "headerLocation": "Parkmerced", "headerFullLocation": "Parkmerced, San Francisco", "headerLocationGranularity": "neighborhood", "query": "food drink", "totalResults": 3, "suggestedBounds": {"ne": {"lat": 37.72461230675, "lng": -122.47238698492035}, "sw": {"lat": 37.71111229324999, "lng": -122.48942143232105}}, "groups": [{"type": "Recommended Places", "name": "recommended", "items": [{"reasons": {"count": 0, "items": [{"summary": "This spot is popular", "type": "general", "reasonName": "globalInteractionReason"}]}, "venue": {"id": "4f633d63e4b0bf1010b180b9", "name": "Everyday Liquors", "location": {"lat": 37.724365234375, "lng": -122.48224639892578, "labeledLatLngs": [{"label": "display", "lat": 37.724365234375, "lng": -122.48224639892578}], "distance": 733, "cc": "US", "city": "San Francisco", "state": "CA", "country": "United States", "formattedAddress": ["San Francisco, CA", "United States"]}, "categories": [{"id": "4bf58dd8d48988d186941735", "name": "Liquor Store", "pluralName": "Liquor Stores", "shortName": "Liquor Store", "icon": {"prefix": "https://ss3.4sqi.net/img/categories_v2/shops/food_liquor_", "suffix": ".png"}, "primary": true}], "photos": {"count": 0, "groups": []}}, "referralId": "e-0-4f633d63e4b0bf1010b180b9-0"}, {"reasons": {"count": 0, "items": [{"summary": "This spot is popular", "type": "general", "reasonName": "globalInteractionReason"}]}, "venue": {"id": "4d41c0f9467754816f0064f4", "name": "SFSU Farmers' Market", "location": {"address": "1600 Holloway Ave", "crossStreet": "at 19th Ave", "lat": 37.72251890396175, "lng": -122.48060370945316, "labeledLatLngs": [{"label": "display", "lat": 37.72251890396175, "lng": -122.48060370945316}], "distance": 519, "postalCode": "94132", "cc": "US", "city": "San Francisco", "state": "CA", "country": "United States", "formattedAddress": ["1600 Holloway Ave (at 19th Ave)", "San Francisco, CA 94132", "United States"]}, "categories": [{"id": "4bf58dd8d48988d1cb941735", "name": "Food Truck", "pluralName": "Food Trucks", "shortName": "Food Truck", "icon": {"prefix": "https://ss3.4sqi.net/img/categories_v2/food/streetfood_", "suffix": ".png"}, "primary": true}], "photos": {"count": 0, "groups": []}}, "referralId": "e-0-4d41c0f9467754816f0064f4-1"}, {"reasons": {"count": 0, "items": [{"summary": "This spot is popular", "type": "general", "reasonName": "globalInteractionReason"}]}, "venue": {"id": "58087eed38fa247a62bb8540", "name": "A&R Seafood Company", "location": {"address": "301 Arballo Dr", "lat": 37.7212, "lng": -122.483, "labeledLatLngs": [{"label": "display", "lat": 37.7212, "lng": -122.483}], "distance": 414, "postalCode": "94132", "cc": "US", "city": "San Francisco", "state": "CA", "country": "United States", "formattedAddress": ["301 Arballo Dr", "San Francisco, CA 94132", "United States"]}, "categories": [{"id": "4bf58dd8d48988d10e951735", "name": "Fish Market", "pluralName": "Fish Markets", "shortName": "Fish Market", "icon": {"prefix": "https://ss3.4sqi.net/img/categories_v2/shops/food_fishmarket_", "suffix": ".png"}, "primary": true}], "photos": {"count": 0, "groups": []}}, "referralId": "e-0-58087eed38fa247a62bb8540-2"}]}]}}, {"meta": {"code": 200, "requestId": "60b7e63b2455687ea8351424"}, "response": {"warning": {"text": "There aren't a lot of results near you. Try something more general, reset your filters, or expand the search area."}, "headerLocation": "Ingleside", "headerFullLocation": "Ingleside, San Francisco", "headerLocationGranularity": "neighborhood", "query": "food drink", "totalResults": 2, "suggestedBounds": {"ne": {"lat": 37.724949906750005, "lng": -122.46164008748659}, "sw": {"lat": 37.71144989325, "lng": -122.4786746125134}}, "groups": [{"type": "Recommended Places", "name": "recommended", "items": [{"reasons": {"count": 0, "items": [{"summary": "This spot is popular", "type": "general", "reasonName": "globalInteractionReason"}]}, "venue": {"id": "4c59dd0bd3aee21e904b6955", "name": "Luckys", "location": {"address": "300", "crossStreet": "East hills dale blvd", "lat": 37.723647048065864, "lng": -122.46605469524975, "labeledLatLngs": [{"label": "display", "lat": 37.723647048065864, "lng": -122.46605469524975}], "distance": 705, "postalCode": "94404", "cc": "US", "city": "Foster City", "state": "CA", "country": "United States", "formattedAddress": ["300 (East hills dale blvd)", "Foster City, CA 94404", "United States"]}, "categories": [{"id": "4bf58dd8d48988d118951735", "name": "Grocery Store", "pluralName": "Grocery Stores", "shortName": "Grocery Store", "icon": {"prefix": "https://ss3.4sqi.net/img/categories_v2/shops/food_grocery_", "suffix": ".png"}, "primary": true}], "photos": {"count": 0, "groups": []}}, "referralId": "e-0-4c59dd0bd3aee21e904b6955-0"}, {"reasons": {"count": 0, "items": [{"summary": "This spot is popular", "type": "general", "reasonName": "globalInteractionReason"}]}, "venue": {"id": "4be1d67aa145c9281abe4e80", "name": "Cool Guys Market", "location": {"address": "845 Holloway Ave", "lat": 37.72033227534335, "lng": -122.46417353854675, "labeledLatLngs": [{"label": "display", "lat": 37.72033227534335, "lng": -122.46417353854675}], "distance": 577, "postalCode": "94112", "cc": "US", "city": "San Francisco", "state": "CA", "country": "United States", "formattedAddress": ["845 Holloway Ave", "San Francisco, CA 94112", "United States"]}, "categories": [{"id": "4bf58dd8d48988d186941735", "name": "Liquor Store", "pluralName": "Liquor Stores", "shortName": "Liquor Store", "icon": {"prefix": "https://ss3.4sqi.net/img/categories_v2/shops/food_liquor_", "suffix": ".png"}, "primary": true}], "photos": {"count": 0, "groups": []}}, "referralId": "e-0-4be1d67aa145c9281abe4e80-1"}]}]}}, {"meta": {"code": 200, "requestId": "60b7e63cfdfccd30fba311e3"}, "response": {"suggestedFilters": {"header": "Tap to show:", "filters": [{"name": "Open now", "key": "openNow"}]}, "headerLocation": "San Francisco", "headerFullLocation": "San Francisco", "headerLocationGranularity": "city", "query": "food drink", "totalResults": 12, "suggestedBounds": {"ne": {"lat": 37.72484250675, "lng": -122.45150985248713}, "sw": {"lat": 37.711342493249994, "lng": -122.46854435281875}}, "groups": [{"type": "Recommended Places", "name": "recommended", "items": [{"reasons": {"count": 0, "items": [{"summary": "This spot is popular", "type": "general", "reasonName": "globalInteractionReason"}]}, "venue": {"id": "45302223f964a5205e3b1fe3", "name": "Java on Ocean Coffee House", "location": {"address": "1700 Ocean Ave", "crossStreet": "at Faxon Ave", "lat": 37.724799, "lng": -122.460119, "labeledLatLngs": [{"label": "display", "lat": 37.724799, "lng": -122.460119}, {"label": "entrance", "lat": 37.724859, "lng": -122.460114}], "distance": 746, "postalCode": "94112", "cc": "US", "city": "San Francisco", "state": "CA", "country": "United States", "formattedAddress": ["1700 Ocean Ave (at Faxon Ave)", "San Francisco, CA 94112", "United States"]}, "categories": [{"id": "4bf58dd8d48988d16d941735", "name": "Caf\u00e9", "pluralName": "Caf\u00e9s", "shortName": "Caf\u00e9", "icon": {"prefix": "https://ss3.4sqi.net/img/categories_v2/food/cafe_", "suffix": ".png"}, "primary": true}], "delivery": {"id": "559235", "url": "https://www.grubhub.com/restaurant/java-on-ocean-coffee-house-1700-ocean-ave-san-francisco/559235?affiliate=1131&utm_source=foursquare-affiliate-network&utm_medium=affiliate&utm_campaign=1131&utm_content=559235", "provider": {"name": "grubhub", "icon": {"prefix": "https://fastly.4sqi.net/img/general/cap/", "sizes": [40, 50], "name": "/delivery_provider_grubhub_20180129.png"}}}, "photos": {"count": 0, "groups": []}}, "referralId": "e-0-45302223f964a5205e3b1fe3-0"}, {"reasons": {"count": 0, "items": [{"summary": "This spot is popular", "type": "general", "reasonName": "globalInteractionReason"}]}, "venue": {"id": "4ce83721b99754812d33fb44", "name": "Family Market", "location": {"address": "198 Broad St", "crossStreet": "Capitol", "lat": 37.71322473994249, "lng": -122.45880477885848, "labeledLatLngs": [{"label": "display", "lat": 37.71322473994249, "lng": -122.45880477885848}, {"label": "entrance", "lat": 37.713297, "lng": -122.458885}], "distance": 552, "postalCode": "94112", "cc": "US", "city": "San Francisco", "state": "CA", "country": "United States", "formattedAddress": ["198 Broad St (Capitol)", "San Francisco, CA 94112", "United States"]}, "categories": [{"id": "4bf58dd8d48988d118951735", "name": "Grocery Store", "pluralName": "Grocery Stores", "shortName": "Grocery Store", "icon": {"prefix": "https://ss3.4sqi.net/img/categories_v2/shops/food_grocery_", "suffix": ".png"}, "primary": true}], "photos": {"count": 0, "groups": []}}, "referralId": "e-0-4ce83721b99754812d33fb44-1"}, {"reasons": {"count": 0, "items": [{"summary": "This spot is popular", "type": "general", "reasonName": "globalInteractionReason"}]}, "venue": {"id": "4de85bc9ae60293318ef6d88", "name": "Ana's Market", "location": {"address": "105 Broad St", "crossStreet": "Plymouth", "lat": 37.713183060154044, "lng": -122.4563873010458, "labeledLatLngs": [{"label": "display", "lat": 37.713183060154044, "lng": -122.4563873010458}, {"label": "entrance", "lat": 37.713092, "lng": -122.456382}], "distance": 633, "postalCode": "94112", "cc": "US", "city": "San Francisco", "state": "CA", "country": "United States", "formattedAddress": ["105 Broad St (Plymouth)", "San Francisco, CA 94112", "United States"]}, "categories": [{"id": "4bf58dd8d48988d118951735", "name": "Grocery Store", "pluralName": "Grocery Stores", "shortName": "Grocery Store", "icon": {"prefix": "https://ss3.4sqi.net/img/categories_v2/shops/food_grocery_", "suffix": ".png"}, "primary": true}], "photos": {"count": 0, "groups": []}}, "referralId": "e-0-4de85bc9ae60293318ef6d88-2"}, {"reasons": {"count": 0, "items": [{"summary": "This spot is popular", "type": "general", "reasonName": "globalInteractionReason"}]}, "venue": {"id": "4c7479e3d8948cfa754c65da", "name": "A&N Grocery", "location": {"lat": 37.72430097, "lng": -122.458272, "labeledLatLngs": [{"label": "display", "lat": 37.72430097, "lng": -122.458272}], "distance": 708, "postalCode": "94112", "cc": "US", "city": "San Francisco", "state": "CA", "country": "United States", "formattedAddress": ["San Francisco, CA 94112", "United States"]}, "categories": [{"id": "4bf58dd8d48988d118951735", "name": "Grocery Store", "pluralName": "Grocery Stores", "shortName": "Grocery Store", "icon": {"prefix": "https://ss3.4sqi.net/img/categories_v2/shops/food_grocery_", "suffix": ".png"}, "primary": true}], "photos": {"count": 0, "groups": []}}, "referralId": "e-0-4c7479e3d8948cfa754c65da-3"}, {"reasons": {"count": 0, "items": [{"summary": "This spot is popular", "type": "general", "reasonName": "globalInteractionReason"}]}, "venue": {"id": "5054dcbfe4b09ebc6f16132f", "name": "Power Trading Company", "location": {"address": "1532-1524 Ocean Ave", "lat": 37.724585, "lng": -122.458783, "labeledLatLngs": [{"label": "display", "lat": 37.724585, "lng": -122.458783}], "distance": 730, "postalCode": "94112", "cc": "US", "city": "San Francisco", "state": "CA", "country": "United States", "formattedAddress": ["1532-1524 Ocean Ave", "San Francisco, CA 94112", "United States"]}, "categories": [{"id": "4bf58dd8d48988d118951735", "name": "Grocery Store", "pluralName": "Grocery Stores", "shortName": "Grocery Store", "icon": {"prefix": "https://ss3.4sqi.net/img/categories_v2/shops/food_grocery_", "suffix": ".png"}, "primary": true}], "photos": {"count": 0, "groups": []}}, "referralId": "e-0-5054dcbfe4b09ebc6f16132f-4"}, {"reasons": {"count": 0, "items": [{"summary": "This spot is popular", "type": "general", "reasonName": "globalInteractionReason"}]}, "venue": {"id": "4b4f8c1ef964a520ef0a27e3", "name": "Fruit Barn", "location": {"address": "Ocean Avenue", "crossStreet": "Faxon", "lat": 37.7246926470816, "lng": -122.45946864730516, "labeledLatLngs": [{"label": "display", "lat": 37.7246926470816, "lng": -122.45946864730516}, {"label": "entrance", "lat": 37.724714, "lng": -122.459493}], "distance": 736, "cc": "US", "city": "San Francisco", "state": "CA", "country": "United States", "formattedAddress": ["Ocean Avenue (Faxon)", "San Francisco, CA", "United States"]}, "categories": [{"id": "4bf58dd8d48988d118951735", "name": "Grocery Store", "pluralName": "Grocery Stores", "shortName": "Grocery Store", "icon": {"prefix": "https://ss3.4sqi.net/img/categories_v2/shops/food_grocery_", "suffix": ".png"}, "primary": true}], "photos": {"count": 0, "groups": []}}, "referralId": "e-0-4b4f8c1ef964a520ef0a27e3-5"}, {"reasons": {"count": 0, "items": [{"summary": "This spot is popular", "type": "general", "reasonName": "globalInteractionReason"}]}, "venue": {"id": "4adf5f5ef964a520fa7921e3", "name": "El Porvenir Produce Market", "location": {"address": "1400 Ocean Ave", "lat": 37.72441101074219, "lng": -122.45742797851562, "labeledLatLngs": [{"label": "display", "lat": 37.72441101074219, "lng": -122.45742797851562}], "distance": 739, "postalCode": "94112", "cc": "US", "city": "San Francisco", "state": "CA", "country": "United States", "formattedAddress": ["1400 Ocean Ave", "San Francisco, CA 94112", "United States"]}, "categories": [{"id": "4bf58dd8d48988d118951735", "name": "Grocery Store", "pluralName": "Grocery Stores", "shortName": "Grocery Store", "icon": {"prefix": "https://ss3.4sqi.net/img/categories_v2/shops/food_grocery_", "suffix": ".png"}, "primary": true}], "photos": {"count": 0, "groups": []}}, "referralId": "e-0-4adf5f5ef964a520fa7921e3-6"}, {"reasons": {"count": 0, "items": [{"summary": "This spot is popular", "type": "general", "reasonName": "globalInteractionReason"}]}, "venue": {"id": "4d7bbb76136bf04dc799518d", "name": "Holloway Market", "location": {"address": "150 Holloway Ave", "crossStreet": "at Brighton Ave", "lat": 37.72199344553191, "lng": -122.45499730110168, "labeledLatLngs": [{"label": "display", "lat": 37.72199344553191, "lng": -122.45499730110168}, {"label": "entrance", "lat": 37.721937, "lng": -122.454982}], "distance": 620, "postalCode": "94112", "cc": "US", "city": "San Francisco", "state": "CA", "country": "United States", "formattedAddress": ["150 Holloway Ave (at Brighton Ave)", "San Francisco, CA 94112", "United States"]}, "categories": [{"id": "4bf58dd8d48988d186941735", "name": "Liquor Store", "pluralName": "Liquor Stores", "shortName": "Liquor Store", "icon": {"prefix": "https://ss3.4sqi.net/img/categories_v2/shops/food_liquor_", "suffix": ".png"}, "primary": true}], "photos": {"count": 0, "groups": []}}, "referralId": "e-0-4d7bbb76136bf04dc799518d-7"}, {"reasons": {"count": 0, "items": [{"summary": "This spot is popular", "type": "general", "reasonName": "globalInteractionReason"}]}, "venue": {"id": "4be1d67aa145c9281abe4e80", "name": "Cool Guys Market", "location": {"address": "845 Holloway Ave", "lat": 37.72033227534335, "lng": -122.46417353854675, "labeledLatLngs": [{"label": "display", "lat": 37.72033227534335, "lng": -122.46417353854675}], "distance": 442, "postalCode": "94112", "cc": "US", "city": "San Francisco", "state": "CA", "country": "United States", "formattedAddress": ["845 Holloway Ave", "San Francisco, CA 94112", "United States"]}, "categories": [{"id": "4bf58dd8d48988d186941735", "name": "Liquor Store", "pluralName": "Liquor Stores", "shortName": "Liquor Store", "icon": {"prefix": "https://ss3.4sqi.net/img/categories_v2/shops/food_liquor_", "suffix": ".png"}, "primary": true}], "photos": {"count": 0, "groups": []}}, "referralId": "e-0-4be1d67aa145c9281abe4e80-8"}, {"reasons": {"count": 0, "items": [{"summary": "This spot is popular", "type": "general", "reasonName": "globalInteractionReason"}]}, "venue": {"id": "4cd5e115ab19a0936a0a42eb", "name": "Fairview Market", "location": {"address": "295 Orizaba Ave", "crossStreet": "Randolph", "lat": 37.7141227722168, "lng": -122.46295928955078, "labeledLatLngs": [{"label": "display", "lat": 37.7141227722168, "lng": -122.46295928955078}], "distance": 511, "postalCode": "94132", "cc": "US", "city": "San Francisco", "state": "CA", "country": "United States", "formattedAddress": ["295 Orizaba Ave (Randolph)", "San Francisco, CA 94132", "United States"]}, "categories": [{"id": "4bf58dd8d48988d186941735", "name": "Liquor Store", "pluralName": "Liquor Stores", "shortName": "Liquor Store", "icon": {"prefix": "https://ss3.4sqi.net/img/categories_v2/shops/food_liquor_", "suffix": ".png"}, "primary": true}], "photos": {"count": 0, "groups": []}}, "referralId": "e-0-4cd5e115ab19a0936a0a42eb-9"}, {"reasons": {"count": 0, "items": [{"summary": "This spot is popular", "type": "general", "reasonName": "globalInteractionReason"}]}, "venue": {"id": "4c8c5f5e55fba093645a5fab", "name": "RC Package House", "location": {"address": "98 Broad St", "crossStreet": "Plymouth", "lat": 37.713488, "lng": -122.45593600000001, "labeledLatLngs": [{"label": "display", "lat": 37.713488, "lng": -122.45593600000001}, {"label": "entrance", "lat": 37.713308, "lng": -122.455938}], "distance": 626, "postalCode": "94112", "cc": "US", "city": "San Francisco", "state": "CA", "country": "United States", "formattedAddress": ["98 Broad St (Plymouth)", "San Francisco, CA 94112", "United States"]}, "categories": [{"id": "4bf58dd8d48988d186941735", "name": "Liquor Store", "pluralName": "Liquor Stores", "shortName": "Liquor Store", "icon": {"prefix": "https://ss3.4sqi.net/img/categories_v2/shops/food_liquor_", "suffix": ".png"}, "primary": true}], "photos": {"count": 0, "groups": []}}, "referralId": "e-0-4c8c5f5e55fba093645a5fab-10"}, {"reasons": {"count": 0, "items": [{"summary": "This spot is popular", "type": "general", "reasonName": "globalInteractionReason"}]}, "venue": {"id": "4cdcb09599026dcbb2231581", "name": "A & N Liquor", "location": {"address": "1521 Ocean Ave", "lat": 37.724202000000005, "lng": -122.458638, "labeledLatLngs": [{"label": "display", "lat": 37.724202000000005, "lng": -122.458638}, {"label": "entrance", "lat": 37.724293, "lng": -122.458639}], "distance": 691, "postalCode": "94112", "cc": "US", "city": "San Francisco", "state": "CA", "country": "United States", "formattedAddress": ["1521 Ocean Ave", "San Francisco, CA 94112", "United States"]}, "categories": [{"id": "4bf58dd8d48988d1ff941735", "name": "Miscellaneous Shop", "pluralName": "Miscellaneous Shops", "shortName": "Shop", "icon": {"prefix": "https://ss3.4sqi.net/img/categories_v2/shops/default_", "suffix": ".png"}, "primary": true}], "delivery": {"id": "2246615", "url": "https://www.grubhub.com/restaurant/a--n-liquors-1521-ocean-ave-san-francisco/2246615?affiliate=1131&utm_source=foursquare-affiliate-network&utm_medium=affiliate&utm_campaign=1131&utm_content=2246615", "provider": {"name": "grubhub", "icon": {"prefix": "https://fastly.4sqi.net/img/general/cap/", "sizes": [40, 50], "name": "/delivery_provider_grubhub_20180129.png"}}}, "photos": {"count": 0, "groups": []}}, "referralId": "e-0-4cdcb09599026dcbb2231581-11"}]}]}}, {"meta": {"code": 200, "requestId": "60b7e63c87bfd807c8db2584"}, "response": {"suggestedFilters": {"header": "Tap to show:", "filters": [{"name": "Open now", "key": "openNow"}]}, "headerLocation": "Cayuga", "headerFullLocation": "Cayuga, San Francisco", "headerLocationGranularity": "neighborhood", "query": "food drink", "totalResults": 10, "suggestedBounds": {"ne": {"lat": 37.72483725675001, "lng": -122.43154335986137}, "sw": {"lat": 37.71133724325, "lng": -122.44857785898583}}, "groups": [{"type": "Recommended Places", "name": "recommended", "items": [{"reasons": {"count": 0, "items": [{"summary": "This spot is popular", "type": "general", "reasonName": "globalInteractionReason"}]}, "venue": {"id": "4a0e082af964a520bb751fe3", "name": "Mike's Liquors", "location": {"address": "5084 Mission St", "crossStreet": "at Geneva", "lat": 37.717189000000005, "lng": -122.440854, "labeledLatLngs": [{"label": "display", "lat": 37.717189000000005, "lng": -122.440854}, {"label": "entrance", "lat": 37.71709, "lng": -122.440735}], "distance": 121, "postalCode": "94112", "cc": "US", "city": "San Francisco", "state": "CA", "country": "United States", "formattedAddress": ["5084 Mission St (at Geneva)", "San Francisco, CA 94112", "United States"]}, "categories": [{"id": "4bf58dd8d48988d186941735", "name": "Liquor Store", "pluralName": "Liquor Stores", "shortName": "Liquor Store", "icon": {"prefix": "https://ss3.4sqi.net/img/categories_v2/shops/food_liquor_", "suffix": ".png"}, "primary": true}], "delivery": {"id": "2286261", "url": "https://www.grubhub.com/restaurant/mikes-liquors-5084-mission-st-san-francisco/2286261?affiliate=1131&utm_source=foursquare-affiliate-network&utm_medium=affiliate&utm_campaign=1131&utm_content=2286261", "provider": {"name": "grubhub", "icon": {"prefix": "https://fastly.4sqi.net/img/general/cap/", "sizes": [40, 50], "name": "/delivery_provider_grubhub_20180129.png"}}}, "photos": {"count": 0, "groups": []}}, "referralId": "e-0-4a0e082af964a520bb751fe3-0"}, {"reasons": {"count": 0, "items": [{"summary": "This spot is popular", "type": "general", "reasonName": "globalInteractionReason"}]}, "venue": {"id": "4c969de438dd8cfaa618dd62", "name": "Jia Li Market", "location": {"address": "4990 Mission St", "lat": 37.718717, "lng": -122.439647, "labeledLatLngs": [{"label": "display", "lat": 37.718717, "lng": -122.439647}, {"label": "entrance", "lat": 37.718647, "lng": -122.439537}], "distance": 78, "postalCode": "94112", "cc": "US", "city": "San Francisco", "state": "CA", "country": "United States", "formattedAddress": ["4990 Mission St", "San Francisco, CA 94112", "United States"]}, "categories": [{"id": "4bf58dd8d48988d118951735", "name": "Grocery Store", "pluralName": "Grocery Stores", "shortName": "Grocery Store", "icon": {"prefix": "https://ss3.4sqi.net/img/categories_v2/shops/food_grocery_", "suffix": ".png"}, "primary": true}], "photos": {"count": 0, "groups": []}}, "referralId": "e-0-4c969de438dd8cfaa618dd62-1"}, {"reasons": {"count": 0, "items": [{"summary": "This spot is popular", "type": "general", "reasonName": "globalInteractionReason"}]}, "venue": {"id": "4bbe19028ec3d13a8eec1c28", "name": "San Francisco Farmer's Market", "location": {"address": "4929 Mission St", "crossStreet": "France", "lat": 37.719419, "lng": -122.43848899999999, "labeledLatLngs": [{"label": "display", "lat": 37.719419, "lng": -122.43848899999999}, {"label": "entrance", "lat": 37.719524, "lng": -122.438589}], "distance": 202, "postalCode": "94112", "cc": "US", "city": "San Francisco", "state": "CA", "country": "United States", "formattedAddress": ["4929 Mission St (France)", "San Francisco, CA 94112", "United States"]}, "categories": [{"id": "4bf58dd8d48988d1fa941735", "name": "Farmers Market", "pluralName": "Farmers Markets", "shortName": "Farmer's Market", "icon": {"prefix": "https://ss3.4sqi.net/img/categories_v2/shops/food_farmersmarket_", "suffix": ".png"}, "primary": true}], "photos": {"count": 0, "groups": []}}, "referralId": "e-0-4bbe19028ec3d13a8eec1c28-2"}, {"reasons": {"count": 0, "items": [{"summary": "This spot is popular", "type": "general", "reasonName": "globalInteractionReason"}]}, "venue": {"id": "4bbd3a13a8cf76b031a0b1fd", "name": "Guzman Produce", "location": {"address": "5229 Mission St", "crossStreet": "at Pope", "lat": 37.7150519773246, "lng": -122.44218600795732, "labeledLatLngs": [{"label": "display", "lat": 37.7150519773246, "lng": -122.44218600795732}], "distance": 386, "postalCode": "94112", "cc": "US", "city": "San Francisco", "state": "CA", "country": "United States", "formattedAddress": ["5229 Mission St (at Pope)", "San Francisco, CA 94112", "United States"]}, "categories": [{"id": "4bf58dd8d48988d118951735", "name": "Grocery Store", "pluralName": "Grocery Stores", "shortName": "Grocery Store", "icon": {"prefix": "https://ss3.4sqi.net/img/categories_v2/shops/food_grocery_", "suffix": ".png"}, "primary": true}], "photos": {"count": 0, "groups": []}}, "referralId": "e-0-4bbd3a13a8cf76b031a0b1fd-3"}, {"reasons": {"count": 0, "items": [{"summary": "This spot is popular", "type": "general", "reasonName": "globalInteractionReason"}]}, "venue": {"id": "4b319c80f964a520ad0925e3", "name": "Cordova Market", "location": {"address": "Rolph", "lat": 37.71350327754987, "lng": -122.43638931112805, "labeledLatLngs": [{"label": "display", "lat": 37.71350327754987, "lng": -122.43638931112805}, {"label": "entrance", "lat": 37.713496, "lng": -122.4364}], "distance": 604, "postalCode": "94112", "cc": "US", "city": "San Francisco", "state": "CA", "country": "United States", "formattedAddress": ["Rolph", "San Francisco, CA 94112", "United States"]}, "categories": [{"id": "4bf58dd8d48988d186941735", "name": "Liquor Store", "pluralName": "Liquor Stores", "shortName": "Liquor Store", "icon": {"prefix": "https://ss3.4sqi.net/img/categories_v2/shops/food_liquor_", "suffix": ".png"}, "primary": true}], "photos": {"count": 0, "groups": []}}, "referralId": "e-0-4b319c80f964a520ad0925e3-4"}, {"reasons": {"count": 0, "items": [{"summary": "This spot is popular", "type": "general", "reasonName": "globalInteractionReason"}]}, "venue": {"id": "4c5c69e085a1e21e2f955611", "name": "La Loma Produce #6", "location": {"address": "4788 Mission St", "lat": 37.721477, "lng": -122.43753799999999, "labeledLatLngs": [{"label": "display", "lat": 37.721477, "lng": -122.43753799999999}, {"label": "entrance", "lat": 37.721531, "lng": -122.437371}], "distance": 437, "postalCode": "94112", "cc": "US", "city": "San Francisco", "state": "CA", "country": "United States", "formattedAddress": ["4788 Mission St", "San Francisco, CA 94112", "United States"]}, "categories": [{"id": "4bf58dd8d48988d118951735", "name": "Grocery Store", "pluralName": "Grocery Stores", "shortName": "Grocery Store", "icon": {"prefix": "https://ss3.4sqi.net/img/categories_v2/shops/food_grocery_", "suffix": ".png"}, "primary": true}], "photos": {"count": 0, "groups": []}}, "referralId": "e-0-4c5c69e085a1e21e2f955611-5"}, {"reasons": {"count": 0, "items": [{"summary": "This spot is popular", "type": "general", "reasonName": "globalInteractionReason"}]}, "venue": {"id": "4aa5c0e2f964a5205d4920e3", "name": "Safeway", "location": {"address": "4950 Mission St", "crossStreet": "at France Ave", "lat": 37.7197955, "lng": -122.4387018, "labeledLatLngs": [{"label": "entrance", "lat": 37.719776, "lng": -122.438681}, {"label": "display", "lat": 37.7197955, "lng": -122.4387018}], "distance": 224, "postalCode": "94112", "cc": "US", "city": "San Francisco", "state": "CA", "country": "United States", "formattedAddress": ["4950 Mission St (at France Ave)", "San Francisco, CA 94112", "United States"]}, "categories": [{"id": "4bf58dd8d48988d118951735", "name": "Grocery Store", "pluralName": "Grocery Stores", "shortName": "Grocery Store", "icon": {"prefix": "https://ss3.4sqi.net/img/categories_v2/shops/food_grocery_", "suffix": ".png"}, "primary": true}], "photos": {"count": 0, "groups": []}}, "referralId": "e-0-4aa5c0e2f964a5205d4920e3-6"}, {"reasons": {"count": 0, "items": [{"summary": "This spot is popular", "type": "general", "reasonName": "globalInteractionReason"}]}, "venue": {"id": "50060081e4b0a7faa5e506dc", "name": "Al Market", "location": {"address": "296 Ocean Ave", "lat": 37.723289489746094, "lng": -122.4429702758789, "labeledLatLngs": [{"label": "display", "lat": 37.723289489746094, "lng": -122.4429702758789}], "distance": 633, "postalCode": "94112", "cc": "US", "city": "San Francisco", "state": "CA", "country": "United States", "formattedAddress": ["296 Ocean Ave", "San Francisco, CA 94112", "United States"]}, "categories": [{"id": "4bf58dd8d48988d118951735", "name": "Grocery Store", "pluralName": "Grocery Stores", "shortName": "Grocery Store", "icon": {"prefix": "https://ss3.4sqi.net/img/categories_v2/shops/food_grocery_", "suffix": ".png"}, "primary": true}], "photos": {"count": 0, "groups": []}}, "referralId": "e-0-50060081e4b0a7faa5e506dc-7"}, {"reasons": {"count": 0, "items": [{"summary": "This spot is popular", "type": "general", "reasonName": "globalInteractionReason"}]}, "venue": {"id": "4b7f9394f964a5201d3530e3", "name": "United Liquor Market", "location": {"address": "5298 Mission St", "crossStreet": "Allison", "lat": 37.714820861816406, "lng": -122.44275665283203, "labeledLatLngs": [{"label": "entrance", "lat": 37.714724, "lng": -122.442703}, {"label": "display", "lat": 37.714820861816406, "lng": -122.44275665283203}], "distance": 434, "postalCode": "94112", "cc": "US", "city": "San Francisco", "state": "CA", "country": "United States", "formattedAddress": ["5298 Mission St (Allison)", "San Francisco, CA 94112", "United States"]}, "categories": [{"id": "4bf58dd8d48988d186941735", "name": "Liquor Store", "pluralName": "Liquor Stores", "shortName": "Liquor Store", "icon": {"prefix": "https://ss3.4sqi.net/img/categories_v2/shops/food_liquor_", "suffix": ".png"}, "primary": true}], "delivery": {"id": "2262333", "url": "https://www.grubhub.com/restaurant/united-liquor-market-5298-mission-st-san-francisco/2262333?affiliate=1131&utm_source=foursquare-affiliate-network&utm_medium=affiliate&utm_campaign=1131&utm_content=2262333", "provider": {"name": "grubhub", "icon": {"prefix": "https://fastly.4sqi.net/img/general/cap/", "sizes": [40, 50], "name": "/delivery_provider_grubhub_20180129.png"}}}, "photos": {"count": 0, "groups": []}}, "referralId": "e-0-4b7f9394f964a5201d3530e3-8"}, {"reasons": {"count": 0, "items": [{"summary": "This spot is popular", "type": "general", "reasonName": "globalInteractionReason"}]}, "venue": {"id": "4be42f38910020a15b53d114", "name": "Amel's Market", "location": {"address": "200 Ocean Ave", "crossStreet": "Otsego", "lat": 37.723437, "lng": -122.441278, "labeledLatLngs": [{"label": "display", "lat": 37.723437, "lng": -122.441278}, {"label": "entrance", "lat": 37.723407, "lng": -122.441301}], "distance": 605, "postalCode": "94112", "cc": "US", "city": "San Francisco", "state": "CA", "country": "United States", "formattedAddress": ["200 Ocean Ave (Otsego)", "San Francisco, CA 94112", "United States"]}, "categories": [{"id": "4bf58dd8d48988d186941735", "name": "Liquor Store", "pluralName": "Liquor Stores", "shortName": "Liquor Store", "icon": {"prefix": "https://ss3.4sqi.net/img/categories_v2/shops/food_liquor_", "suffix": ".png"}, "primary": true}], "photos": {"count": 0, "groups": []}}, "referralId": "e-0-4be42f38910020a15b53d114-9"}]}]}}, {"meta": {"code": 200, "requestId": "60b7e63c2f369a3b3e61b8de"}, "response": {"warning": {"text": "There aren't a lot of results near you. Try something more general, reset your filters, or expand the search area."}, "headerLocation": "Excelsior", "headerFullLocation": "Excelsior, San Francisco", "headerLocationGranularity": "neighborhood", "query": "food drink", "totalResults": 1, "suggestedBounds": {"ne": {"lat": 37.724712206750006, "lng": -122.42143651061103}, "sw": {"lat": 37.71121219325, "lng": -122.43847098098213}}, "groups": [{"type": "Recommended Places", "name": "recommended", "items": [{"reasons": {"count": 0, "items": [{"summary": "This spot is popular", "type": "general", "reasonName": "globalInteractionReason"}]}, "venue": {"id": "4dbcb373f7b1ab37dd664cd5", "name": "Snack & Bottle Shop", "location": {"address": "644 Persia Ave", "lat": 37.720355, "lng": -122.43070900000001, "labeledLatLngs": [{"label": "display", "lat": 37.720355, "lng": -122.43070900000001}, {"label": "entrance", "lat": 37.720472, "lng": -122.430619}], "distance": 274, "postalCode": "94112", "cc": "US", "city": "San Francisco", "state": "CA", "country": "United States", "formattedAddress": ["644 Persia Ave", "San Francisco, CA 94112", "United States"]}, "categories": [{"id": "4d954b0ea243a5684a65b473", "name": "Convenience Store", "pluralName": "Convenience Stores", "shortName": "Convenience Store", "icon": {"prefix": "https://ss3.4sqi.net/img/categories_v2/shops/conveniencestore_", "suffix": ".png"}, "primary": true}], "photos": {"count": 0, "groups": []}}, "referralId": "e-0-4dbcb373f7b1ab37dd664cd5-0"}]}]}}, {"meta": {"code": 200, "requestId": "60b7e63dd4d9b915dfebaa13"}, "response": {"warning": {"text": "There aren't a lot of results near you. Try something more general, reset your filters, or expand the search area."}, "headerLocation": "San Francisco", "headerFullLocation": "San Francisco", "headerLocationGranularity": "city", "query": "food drink", "totalResults": 1, "suggestedBounds": {"ne": {"lat": 37.72410643806772, "lng": -122.41172739055618}, "sw": {"lat": 37.710606424567715, "lng": -122.42876172164235}}, "groups": [{"type": "Recommended Places", "name": "recommended", "items": [{"reasons": {"count": 0, "items": [{"summary": "This spot is popular", "type": "general", "reasonName": "globalInteractionReason"}]}, "venue": {"id": "4bd236c6046076b03f8c7371", "name": "Little Village", "location": {"crossStreet": "Hahn n sunnydale", "lat": 37.71208572387695, "lng": -122.41572570800781, "labeledLatLngs": [{"label": "entrance", "lat": 37.711952, "lng": -122.415806}, {"label": "display", "lat": 37.71208572387695, "lng": -122.41572570800781}], "distance": 708, "cc": "US", "city": "San Francisco", "state": "CA", "country": "United States", "formattedAddress": ["San Francisco, CA", "United States"]}, "categories": [{"id": "4bf58dd8d48988d186941735", "name": "Liquor Store", "pluralName": "Liquor Stores", "shortName": "Liquor Store", "icon": {"prefix": "https://ss3.4sqi.net/img/categories_v2/shops/food_liquor_", "suffix": ".png"}, "primary": true}], "photos": {"count": 0, "groups": []}}, "referralId": "e-0-4bd236c6046076b03f8c7371-0"}]}]}}, {"meta": {"code": 200, "requestId": "60b7e63d2a247d0fee391ff4"}, "response": {"warning": {"text": "There aren't a lot of results near you. Try something more general, reset your filters, or expand the search area."}, "headerLocation": "Portola", "headerFullLocation": "Portola, San Francisco", "headerLocationGranularity": "neighborhood", "query": "food drink", "totalResults": 2, "suggestedBounds": {"ne": {"lat": 37.724735606750016, "lng": -122.39185597294934}, "sw": {"lat": 37.71123559325001, "lng": -122.4088904487009}}, "groups": [{"type": "Recommended Places", "name": "recommended", "items": [{"reasons": {"count": 0, "items": [{"summary": "This spot is popular", "type": "general", "reasonName": "globalInteractionReason"}]}, "venue": {"id": "4e6ceecc483b1f5ebe4a1a8d", "name": "H&KMarket", "location": {"lat": 37.72132836131662, "lng": -122.39511035765528, "labeledLatLngs": [{"label": "display", "lat": 37.72132836131662, "lng": -122.39511035765528}], "distance": 594, "cc": "US", "city": "San Francisco", "state": "CA", "country": "United States", "formattedAddress": ["San Francisco, CA", "United States"]}, "categories": [{"id": "4bf58dd8d48988d186941735", "name": "Liquor Store", "pluralName": "Liquor Stores", "shortName": "Liquor Store", "icon": {"prefix": "https://ss3.4sqi.net/img/categories_v2/shops/food_liquor_", "suffix": ".png"}, "primary": true}], "photos": {"count": 0, "groups": []}}, "referralId": "e-0-4e6ceecc483b1f5ebe4a1a8d-0"}, {"reasons": {"count": 0, "items": [{"summary": "This spot is popular", "type": "general", "reasonName": "globalInteractionReason"}]}, "venue": {"id": "4ba53a21f964a5209bee38e3", "name": "Foothill market", "location": {"lat": 37.723849, "lng": -122.402272, "labeledLatLngs": [{"label": "display", "lat": 37.723849, "lng": -122.402272}, {"label": "entrance", "lat": 37.723881, "lng": -122.40218}], "distance": 673, "postalCode": "94134", "cc": "US", "city": "San Francisco", "state": "CA", "country": "United States", "formattedAddress": ["San Francisco, CA 94134", "United States"]}, "categories": [{"id": "4bf58dd8d48988d186941735", "name": "Liquor Store", "pluralName": "Liquor Stores", "shortName": "Liquor Store", "icon": {"prefix": "https://ss3.4sqi.net/img/categories_v2/shops/food_liquor_", "suffix": ".png"}, "primary": true}], "delivery": {"id": "2447340", "url": "https://www.grubhub.com/restaurant/foothill-market-3004-san-bruno-ave-san-francisco/2447340?affiliate=1131&utm_source=foursquare-affiliate-network&utm_medium=affiliate&utm_campaign=1131&utm_content=2447340", "provider": {"name": "grubhub", "icon": {"prefix": "https://fastly.4sqi.net/img/general/cap/", "sizes": [40, 50], "name": "/delivery_provider_grubhub_20180129.png"}}}, "photos": {"count": 0, "groups": []}, "venuePage": {"id": "593388652"}}, "referralId": "e-0-4ba53a21f964a5209bee38e3-1"}]}]}}, {"meta": {"code": 200, "requestId": "60b7e63efdfccd30fba318a3"}, "response": {"warning": {"text": "There aren't a lot of results near you. Try something more general, reset your filters, or expand the search area."}, "headerLocation": "Bret Harte", "headerFullLocation": "Bret Harte, San Francisco", "headerLocationGranularity": "neighborhood", "query": "food drink", "totalResults": 1, "suggestedBounds": {"ne": {"lat": 37.72466575675001, "lng": -122.38088711359232}, "sw": {"lat": 37.71116574325, "lng": -122.39792157328297}}, "groups": [{"type": "Recommended Places", "name": "recommended", "items": [{"reasons": {"count": 0, "items": [{"summary": "This spot is popular", "type": "general", "reasonName": "globalInteractionReason"}]}, "venue": {"id": "4e6ceecc483b1f5ebe4a1a8d", "name": "H&KMarket", "location": {"lat": 37.72132836131662, "lng": -122.39511035765528, "labeledLatLngs": [{"label": "display", "lat": 37.72132836131662, "lng": -122.39511035765528}], "distance": 629, "cc": "US", "city": "San Francisco", "state": "CA", "country": "United States", "formattedAddress": ["San Francisco, CA", "United States"]}, "categories": [{"id": "4bf58dd8d48988d186941735", "name": "Liquor Store", "pluralName": "Liquor Stores", "shortName": "Liquor Store", "icon": {"prefix": "https://ss3.4sqi.net/img/categories_v2/shops/food_liquor_", "suffix": ".png"}, "primary": true}], "photos": {"count": 0, "groups": []}}, "referralId": "e-0-4e6ceecc483b1f5ebe4a1a8d-0"}]}]}}, {"meta": {"code": 200, "requestId": "60b7e63e368ea9012da26e4a"}, "response": {"warning": {"text": "There aren't a lot of results near you. Try something more general, reset your filters, or expand the search area."}, "headerLocation": "Lakeshore", "headerFullLocation": "Lakeshore, San Francisco", "headerLocationGranularity": "neighborhood", "query": "food drink", "totalResults": 0, "suggestedBounds": {"ne": {"lat": 37.735238126865966, "lng": -122.4978743855493}, "sw": {"lat": 37.72173811336596, "lng": -122.51491127682235}}, "groups": [{"type": "Recommended Places", "name": "recommended", "items": []}]}}, {"meta": {"code": 200, "requestId": "60b7e63f6ddddf3016d5e2c4"}, "response": {"warning": {"text": "There aren't a lot of results near you. Try something more general, reset your filters, or expand the search area."}, "headerLocation": "Lakeshore", "headerFullLocation": "Lakeshore, San Francisco", "headerLocationGranularity": "neighborhood", "query": "food drink", "totalResults": 0, "suggestedBounds": {"ne": {"lat": 37.73339800675, "lng": -122.49083706601763}, "sw": {"lat": 37.719897993249994, "lng": -122.50787353398238}}, "groups": [{"type": "Recommended Places", "name": "recommended", "items": []}]}}, {"meta": {"code": 200, "requestId": "60b7e63f474d1b454f0296f4"}, "response": {"warning": {"text": "There aren't a lot of results near you. Try something more general, reset your filters, or expand the search area."}, "headerLocation": "Lakeshore", "headerFullLocation": "Lakeshore, San Francisco", "headerLocationGranularity": "neighborhood", "query": "food drink", "totalResults": 2, "suggestedBounds": {"ne": {"lat": 37.73584717793719, "lng": -122.48240855143207}, "sw": {"lat": 37.72234716443718, "lng": -122.49944558282208}}, "groups": [{"type": "Recommended Places", "name": "recommended", "items": [{"reasons": {"count": 0, "items": [{"summary": "This spot is popular", "type": "general", "reasonName": "globalInteractionReason"}]}, "venue": {"id": "4ad28c01f964a5202be220e3", "name": "Lucky", "location": {"address": "1515 Sloat Blvd", "crossStreet": "at Havenside Dr", "lat": 37.73325, "lng": -122.48974, "labeledLatLngs": [{"label": "display", "lat": 37.73325, "lng": -122.48974}], "distance": 473, "postalCode": "94132", "cc": "US", "city": "San Francisco", "state": "CA", "country": "United States", "formattedAddress": ["1515 Sloat Blvd (at Havenside Dr)", "San Francisco, CA 94132", "United States"]}, "categories": [{"id": "52f2ab2ebcbc57f1066b8b46", "name": "Supermarket", "pluralName": "Supermarkets", "shortName": "Supermarket", "icon": {"prefix": "https://ss3.4sqi.net/img/categories_v2/shops/food_grocery_", "suffix": ".png"}, "primary": true}], "delivery": {"id": "2372569", "url": "https://www.grubhub.com/restaurant/lucky-california-1515-sloat-blvd-san-francisco/2372569?affiliate=1131&utm_source=foursquare-affiliate-network&utm_medium=affiliate&utm_campaign=1131&utm_content=2372569", "provider": {"name": "grubhub", "icon": {"prefix": "https://fastly.4sqi.net/img/general/cap/", "sizes": [40, 50], "name": "/delivery_provider_grubhub_20180129.png"}}}, "photos": {"count": 0, "groups": []}}, "referralId": "e-0-4ad28c01f964a5202be220e3-0"}, {"reasons": {"count": 0, "items": [{"summary": "This spot is popular", "type": "general", "reasonName": "globalInteractionReason"}]}, "venue": {"id": "4b7345edf964a520aca52de3", "name": "GNC", "location": {"address": "1549 Sloat Blvd", "lat": 37.733055, "lng": -122.489434, "labeledLatLngs": [{"label": "display", "lat": 37.733055, "lng": -122.489434}], "distance": 459, "postalCode": "94132", "cc": "US", "city": "San Francisco", "state": "CA", "country": "United States", "formattedAddress": ["1549 Sloat Blvd", "San Francisco, CA 94132", "United States"]}, "categories": [{"id": "5744ccdfe4b0c0459246b4cd", "name": "Supplement Shop", "pluralName": "Supplement Shops", "shortName": "Supplement Shop", "icon": {"prefix": "https://ss3.4sqi.net/img/categories_v2/education/lab_", "suffix": ".png"}, "primary": true}], "photos": {"count": 0, "groups": []}}, "referralId": "e-0-4b7345edf964a520aca52de3-1"}]}]}}, {"meta": {"code": 200, "requestId": "60b7e640add1070f6ffacd66"}, "response": {"suggestedFilters": {"header": "Tap to show:", "filters": [{"name": "Open now", "key": "openNow"}]}, "headerLocation": "Stonestown", "headerFullLocation": "Stonestown, San Francisco", "headerLocationGranularity": "neighborhood", "query": "food drink", "totalResults": 10, "suggestedBounds": {"ne": {"lat": 37.73464835675, "lng": -122.47156509368875}, "sw": {"lat": 37.72114834324999, "lng": -122.4886018492846}}, "groups": [{"type": "Recommended Places", "name": "recommended", "items": [{"reasons": {"count": 0, "items": [{"summary": "This spot is popular", "type": "general", "reasonName": "globalInteractionReason"}]}, "venue": {"id": "4a8ae30ff964a520bc0a20e3", "name": "Trader Joe's", "location": {"address": "265 Winston Dr", "crossStreet": "at 20th Ave", "lat": 37.726699096320374, "lng": -122.47649881317811, "labeledLatLngs": [{"label": "display", "lat": 37.726699096320374, "lng": -122.47649881317811}, {"label": "entrance", "lat": 37.72691, "lng": -122.476782}], "distance": 342, "postalCode": "94132", "cc": "US", "city": "San Francisco", "state": "CA", "country": "United States", "formattedAddress": ["265 Winston Dr (at 20th Ave)", "San Francisco, CA 94132", "United States"]}, "categories": [{"id": "4bf58dd8d48988d118951735", "name": "Grocery Store", "pluralName": "Grocery Stores", "shortName": "Grocery Store", "icon": {"prefix": "https://ss3.4sqi.net/img/categories_v2/shops/food_grocery_", "suffix": ".png"}, "primary": true}], "photos": {"count": 0, "groups": []}}, "referralId": "e-0-4a8ae30ff964a520bc0a20e3-0"}, {"reasons": {"count": 0, "items": [{"summary": "This spot is popular", "type": "general", "reasonName": "globalInteractionReason"}]}, "venue": {"id": "50561a93e4b07ab78de0d6e1", "name": "Marshall's Farm Honey @ Stonestown", "location": {"address": "3252 20th Ave", "lat": 37.729616, "lng": -122.477865, "labeledLatLngs": [{"label": "display", "lat": 37.729616, "lng": -122.477865}], "distance": 273, "postalCode": "94132", "cc": "US", "city": "San Francisco", "state": "CA", "country": "United States", "formattedAddress": ["3252 20th Ave", "San Francisco, CA 94132", "United States"]}, "categories": [{"id": "4bf58dd8d48988d1f9941735", "name": "Food & Drink Shop", "pluralName": "Food & Drink Shops", "shortName": "Food & Drink", "icon": {"prefix": "https://ss3.4sqi.net/img/categories_v2/shops/foodanddrink_", "suffix": ".png"}, "primary": true}], "photos": {"count": 0, "groups": []}}, "referralId": "e-0-50561a93e4b07ab78de0d6e1-1"}, {"reasons": {"count": 0, "items": [{"summary": "This spot is popular", "type": "general", "reasonName": "globalInteractionReason"}]}, "venue": {"id": "4ac8eec6f964a52062bd20e3", "name": "Stonestown Farmers Market", "location": {"address": "3251 20th Ave", "lat": 37.730126917341096, "lng": -122.47915000470392, "labeledLatLngs": [{"label": "display", "lat": 37.730126917341096, "lng": -122.47915000470392}], "distance": 261, "postalCode": "94132", "cc": "US", "city": "San Francisco", "state": "CA", "country": "United States", "formattedAddress": ["3251 20th Ave", "San Francisco, CA 94132", "United States"]}, "categories": [{"id": "4bf58dd8d48988d1fa941735", "name": "Farmers Market", "pluralName": "Farmers Markets", "shortName": "Farmer's Market", "icon": {"prefix": "https://ss3.4sqi.net/img/categories_v2/shops/food_farmersmarket_", "suffix": ".png"}, "primary": true}], "photos": {"count": 0, "groups": []}}, "referralId": "e-0-4ac8eec6f964a52062bd20e3-2"}, {"reasons": {"count": 0, "items": [{"summary": "This spot is popular", "type": "general", "reasonName": "globalInteractionReason"}]}, "venue": {"id": "4b5f7550f964a5208cbb29e3", "name": "GNC", "location": {"address": "3251 20th Ave", "crossStreet": "at Stonestown Galleria", "lat": 37.727528, "lng": -122.47713700000001, "labeledLatLngs": [{"label": "display", "lat": 37.727528, "lng": -122.47713700000001}], "distance": 262, "postalCode": "94132", "cc": "US", "city": "San Francisco", "state": "CA", "country": "United States", "formattedAddress": ["3251 20th Ave (at Stonestown Galleria)", "San Francisco, CA 94132", "United States"]}, "categories": [{"id": "5744ccdfe4b0c0459246b4cd", "name": "Supplement Shop", "pluralName": "Supplement Shops", "shortName": "Supplement Shop", "icon": {"prefix": "https://ss3.4sqi.net/img/categories_v2/education/lab_", "suffix": ".png"}, "primary": true}], "photos": {"count": 0, "groups": []}}, "referralId": "e-0-4b5f7550f964a5208cbb29e3-3"}, {"reasons": {"count": 0, "items": [{"summary": "This spot is popular", "type": "general", "reasonName": "globalInteractionReason"}]}, "venue": {"id": "4a8972e5f964a5200b0820e3", "name": "McDonald's", "location": {"address": "255 Winston Dr", "crossStreet": "at 20th Ave", "lat": 37.7263623, "lng": -122.4762351, "labeledLatLngs": [{"label": "entrance", "lat": 37.726905, "lng": -122.476634}, {"label": "display", "lat": 37.7263623, "lng": -122.4762351}], "distance": 379, "postalCode": "94132", "cc": "US", "city": "San Francisco", "state": "CA", "country": "United States", "formattedAddress": ["255 Winston Dr (at 20th Ave)", "San Francisco, CA 94132", "United States"]}, "categories": [{"id": "4bf58dd8d48988d16e941735", "name": "Fast Food Restaurant", "pluralName": "Fast Food Restaurants", "shortName": "Fast Food", "icon": {"prefix": "https://ss3.4sqi.net/img/categories_v2/food/fastfood_", "suffix": ".png"}, "primary": true}], "delivery": {"id": "2454604", "url": "https://www.grubhub.com/restaurant/mcdonalds-255-winston-dr-san-francisco/2454604?affiliate=1131&utm_source=foursquare-affiliate-network&utm_medium=affiliate&utm_campaign=1131&utm_content=2454604", "provider": {"name": "grubhub", "icon": {"prefix": "https://fastly.4sqi.net/img/general/cap/", "sizes": [40, 50], "name": "/delivery_provider_grubhub_20180129.png"}}}, "photos": {"count": 0, "groups": []}}, "referralId": "e-0-4a8972e5f964a5200b0820e3-4"}, {"reasons": {"count": 0, "items": [{"summary": "This spot is popular", "type": "general", "reasonName": "globalInteractionReason"}]}, "venue": {"id": "5096afb4e4b0faafd43d868b", "name": "Tomatero Organic Farm", "location": {"address": "Stonestown Farmers Market", "lat": 37.72988679573887, "lng": -122.47798923733065, "labeledLatLngs": [{"label": "display", "lat": 37.72988679573887, "lng": -122.47798923733065}], "distance": 288, "postalCode": "94132", "cc": "US", "city": "San Francisco", "state": "CA", "country": "United States", "formattedAddress": ["Stonestown Farmers Market", "San Francisco, CA 94132", "United States"]}, "categories": [{"id": "4bf58dd8d48988d1fa941735", "name": "Farmers Market", "pluralName": "Farmers Markets", "shortName": "Farmer's Market", "icon": {"prefix": "https://ss3.4sqi.net/img/categories_v2/shops/food_farmersmarket_", "suffix": ".png"}, "primary": true}], "photos": {"count": 0, "groups": []}}, "referralId": "e-0-5096afb4e4b0faafd43d868b-5"}, {"reasons": {"count": 0, "items": [{"summary": "This spot is popular", "type": "general", "reasonName": "globalInteractionReason"}]}, "venue": {"id": "5096b23be4b0baf4e245f5cc", "name": "Rainbow Orchards", "location": {"lat": 37.729905065241375, "lng": -122.47538575501751, "labeledLatLngs": [{"label": "display", "lat": 37.729905065241375, "lng": -122.47538575501751}], "distance": 470, "postalCode": "94132", "cc": "US", "city": "San Francisco", "state": "CA", "country": "United States", "formattedAddress": ["San Francisco, CA 94132", "United States"]}, "categories": [{"id": "4bf58dd8d48988d1fa941735", "name": "Farmers Market", "pluralName": "Farmers Markets", "shortName": "Farmer's Market", "icon": {"prefix": "https://ss3.4sqi.net/img/categories_v2/shops/food_farmersmarket_", "suffix": ".png"}, "primary": true}], "photos": {"count": 0, "groups": []}}, "referralId": "e-0-5096b23be4b0baf4e245f5cc-6"}, {"reasons": {"count": 0, "items": [{"summary": "This spot is popular", "type": "general", "reasonName": "globalInteractionReason"}]}, "venue": {"id": "4d41c0f9467754816f0064f4", "name": "SFSU Farmers' Market", "location": {"address": "1600 Holloway Ave", "crossStreet": "at 19th Ave", "lat": 37.72251890396175, "lng": -122.48060370945316, "labeledLatLngs": [{"label": "display", "lat": 37.72251890396175, "lng": -122.48060370945316}], "distance": 600, "postalCode": "94132", "cc": "US", "city": "San Francisco", "state": "CA", "country": "United States", "formattedAddress": ["1600 Holloway Ave (at 19th Ave)", "San Francisco, CA 94132", "United States"]}, "categories": [{"id": "4bf58dd8d48988d1cb941735", "name": "Food Truck", "pluralName": "Food Trucks", "shortName": "Food Truck", "icon": {"prefix": "https://ss3.4sqi.net/img/categories_v2/food/streetfood_", "suffix": ".png"}, "primary": true}], "photos": {"count": 0, "groups": []}}, "referralId": "e-0-4d41c0f9467754816f0064f4-7"}, {"reasons": {"count": 0, "items": [{"summary": "This spot is popular", "type": "general", "reasonName": "globalInteractionReason"}]}, "venue": {"id": "4d867ed899b78cfac200e61f", "name": "Sunshine Health Foods", "location": {"address": "2636 Ocean Ave", "crossStreet": "at Lagunitas Dr.", "lat": 37.731996, "lng": -122.473808, "labeledLatLngs": [{"label": "display", "lat": 37.731996, "lng": -122.473808}], "distance": 716, "postalCode": "94132", "cc": "US", "city": "San Francisco", "state": "CA", "country": "United States", "formattedAddress": ["2636 Ocean Ave (at Lagunitas Dr.)", "San Francisco, CA 94132", "United States"]}, "categories": [{"id": "50aa9e744b90af0d42d5de0e", "name": "Health Food Store", "pluralName": "Health Food Stores", "shortName": "Health Food Store", "icon": {"prefix": "https://ss3.4sqi.net/img/categories_v2/shops/food_grocery_", "suffix": ".png"}, "primary": true}], "photos": {"count": 0, "groups": []}}, "referralId": "e-0-4d867ed899b78cfac200e61f-8"}, {"reasons": {"count": 0, "items": [{"summary": "This spot is popular", "type": "general", "reasonName": "globalInteractionReason"}]}, "venue": {"id": "4e587dc11520aa4d004d42f6", "name": "Off the Grid: Golden Gate Fields", "location": {"address": "1100 Eastshore Hwy", "crossStreet": "Buchanan St", "lat": 37.72944117980424, "lng": -122.47488826693592, "labeledLatLngs": [{"label": "display", "lat": 37.72944117980424, "lng": -122.47488826693592}], "distance": 488, "postalCode": "94710", "cc": "US", "city": "Berkeley", "state": "CA", "country": "United States", "formattedAddress": ["1100 Eastshore Hwy (Buchanan St)", "Berkeley, CA 94710", "United States"]}, "categories": [{"id": "4bf58dd8d48988d1cb941735", "name": "Food Truck", "pluralName": "Food Trucks", "shortName": "Food Truck", "icon": {"prefix": "https://ss3.4sqi.net/img/categories_v2/food/streetfood_", "suffix": ".png"}, "primary": true}], "photos": {"count": 0, "groups": []}, "venuePage": {"id": "36862309"}}, "referralId": "e-0-4e587dc11520aa4d004d42f6-9"}]}]}}, {"meta": {"code": 200, "requestId": "60b7e64044d5ef55c693daee"}, "response": {"suggestedFilters": {"header": "Tap to show:", "filters": [{"name": "Open now", "key": "openNow"}]}, "headerLocation": "Ingleside Terraces", "headerFullLocation": "Ingleside Terraces, San Francisco", "headerLocationGranularity": "neighborhood", "query": "food drink", "totalResults": 10, "suggestedBounds": {"ne": {"lat": 37.73457050675, "lng": -122.46189595246945}, "sw": {"lat": 37.72107049325, "lng": -122.47893269015613}}, "groups": [{"type": "Recommended Places", "name": "recommended", "items": [{"reasons": {"count": 0, "items": [{"summary": "This spot is popular", "type": "general", "reasonName": "globalInteractionReason"}]}, "venue": {"id": "4a8ae30ff964a520bc0a20e3", "name": "Trader Joe's", "location": {"address": "265 Winston Dr", "crossStreet": "at 20th Ave", "lat": 37.726699096320374, "lng": -122.47649881317811, "labeledLatLngs": [{"label": "display", "lat": 37.726699096320374, "lng": -122.47649881317811}, {"label": "entrance", "lat": 37.72691, "lng": -122.476782}], "distance": 550, "postalCode": "94132", "cc": "US", "city": "San Francisco", "state": "CA", "country": "United States", "formattedAddress": ["265 Winston Dr (at 20th Ave)", "San Francisco, CA 94132", "United States"]}, "categories": [{"id": "4bf58dd8d48988d118951735", "name": "Grocery Store", "pluralName": "Grocery Stores", "shortName": "Grocery Store", "icon": {"prefix": "https://ss3.4sqi.net/img/categories_v2/shops/food_grocery_", "suffix": ".png"}, "primary": true}], "photos": {"count": 0, "groups": []}}, "referralId": "e-0-4a8ae30ff964a520bc0a20e3-0"}, {"reasons": {"count": 0, "items": [{"summary": "This spot is popular", "type": "general", "reasonName": "globalInteractionReason"}]},